~VERSION INFORMATION
 VERS.                          2.0   : CWLS LOG ASCII STANDARD - VERSION 2.0
 WRAP.                          NO    : ONE LINE PER DEPTH STEP
#
~Well Information Section
#MNEM     .UNIT     DATA                DESCRIPTION
#-----    -----     --------            --------------
 STRT     .M        30.0000             : START DEPTH
 STOP     .M        1900.0000           : END DEPTH
 STEP     .M        0.1500              : INCREMENT DEPTH
 NULL     .         -999.2500           : NULL VALUE
 COMP     .                              :
 WELL     .         F03-4               : WELL NAME
 EKB      .M        30.0000             : KELLY BUSHING ELEVATION
 EGL      .M        0.0000              : GROUND LEVEL ELEVATION
 EPD      .M        0.0000              : PERMANENT DATUM ELEVATION
 FLD      .                              :
 LOC      . X = 623256.0000 Y = 6082586.0000: WELL LOCATION
 PROV     .                              :
 SRVC     .                              :
 PROV     .                              :
 DATE     .                              :
 API      .                              :
#
~Curve Information Section
#MNEM     .UNIT               Curve #DESCRIPTION
#-----    -----               ----   --------------
 DEPTH    .M                  : 1     DEPTH
 RHOB     .kg/m3              : 2     Density
 DT       .us/m               : 3     Sonic
 GR       .API                : 4     Gamma Ray
 AI       .(m/s)*(kg/m3)      : 5     P-Impedance
 AI_rel   .(m/s)*(kg/m3)      : 6     P-Impedance_rel
 PHIE     .fraction           : 7     Porosity
~A (ASCII LOG DATA)
# ...
      876.0001           2178.4653            451.3183             53.0500        4827015.5000         -11363.2822              0.2947
      876.1500           2159.5823            462.0587             53.0695        4673826.5000         -11363.2822              0.3065
      876.3000           2158.5022            462.6471             54.2509        4665548.0000         -11363.2822              0.3072
      876.4500           2163.8000            459.6506             56.3500        4707489.0000         -11363.2822              0.3039
      876.6000           2169.5081            456.4056             57.8262        4753470.0000         -11363.2822              0.3004
      876.7501           2189.5464            445.0331             57.8500        4920102.0000         -11363.2822              0.2878
      876.9000           2192.6763            443.2344             57.8500        4946993.5000         -11363.2822              0.2858
      877.0500           2192.8000            443.1630             57.8500        4948066.0000         -11363.2822              0.2857
      877.2000           2198.1375            440.1288             55.9175        4994332.5000         -11363.2822              0.2824
      877.3500           2198.1482            440.1366             54.9364        4994241.0000         -11363.2822              0.2824
      877.5001           2192.9490            443.0940             54.8500        4949210.5000         -11363.2822              0.2857
      877.6500           2189.9451            444.7704             54.8500        4923774.0000         -11363.2822              0.2875
      877.8000           2189.6001            444.9620             55.1069        4920870.0000         -11363.2822              0.2877
      877.9500           2190.5244            444.4579             55.4021        4928533.0000         -11363.2822              0.2872
      878.1000           2194.1619            442.3857             55.4500        4959867.5000         -11363.2822              0.2849
      878.2501           2195.3042            441.7218             55.4500        4969880.0000           1726.4530              0.2842
      878.4000           2199.5999            439.2889             54.7368        5007234.5000          13507.0566              0.2815
      878.5500           2201.0881            438.4339             54.3171        5020342.5000          15780.1328              0.2806
      878.7000           2202.0364            437.9111             53.7938        5028503.5000          15780.1328              0.2800
      878.8500           2208.1785            434.4214             52.9803        5083172.0000          15780.1328              0.2762
      879.0001           2210.2000            433.2707             52.5315        5101199.0000          15780.1328              0.2749
      879.1500           2210.9834            432.8437             52.4500        5108043.5000          15780.1328              0.2744
      879.3000           2212.4136            432.0452             51.6901        5120798.0000          15780.1328              0.2735
      879.4500           2212.8999            431.7719             51.3584        5125159.0000          15780.1328              0.2732
      879.6000           2212.8999            431.7719             51.3584        5125159.0000          15780.1328              0.2732
      879.7501           2212.8999            431.7719             51.4769        5125159.0000          15780.1328              0.2732
      879.9000           2212.5205            431.9614             51.6569        5122033.5000          15780.1328              0.2734
      880.0500           2210.3894            433.1803             51.8017        5102728.5000          15780.1328              0.2747
      880.2000           2207.9392            434.5901             53.8311        5080522.5000          15780.1328              0.2763
      880.3500           2207.0999            435.0692             55.1500        5072985.5000          15780.1328              0.2768
      880.5001           2207.0999            435.0692             55.1500        5072985.5000          15780.1328              0.2768
      880.6500           2207.3762            434.9038             54.6529        5075551.0000          15780.1328              0.2766
      880.8000           2208.4580            434.2875             54.2500        5085251.5000          15780.1328              0.2760
      880.9500           2209.2000            433.8704             54.0940        5091843.0000          15780.1328              0.2755
      881.1000           2209.2000            433.8704             53.7988        5091843.0000          15780.1328              0.2755
      881.2501           2211.4946            432.5531             53.6500        5112720.5000          15780.1328              0.2741
      881.4000           2213.9001            431.1722             53.6500        5134607.5000          15780.1328              0.2726
      881.5500           2213.9001            431.1722             53.6500        5134607.5000          15780.1328              0.2726
      881.7000           2213.9001            431.1722             53.6500        5134607.5000          15780.1328              0.2726
      881.8500           2213.9001            431.1722             53.3954        5134607.5000          15780.1328              0.2726
      882.0001           2213.9001            431.1722             53.0500        5134607.5000          15780.1328              0.2726
      882.1500           2213.5078            431.4075             53.0500        5130900.5000          15780.1328              0.2728
      882.3000           2210.7173            433.0128             53.3887        5105525.0000          15780.1328              0.2746
      882.4500           2207.0999            435.0692             53.9500        5072985.5000          15780.1328              0.2768
      882.6000           2207.0999            435.0692             53.9500        5072985.5000          15780.1328              0.2768
      882.7501           2207.0999            435.0692             53.7530        5072985.5000          17352.3125              0.2768
      882.9000           2207.0999            435.0692             53.1627        5072985.5000          23469.4688              0.2768
      883.0500           2207.0999            435.0692             52.5723        5072985.5000          29860.8770              0.2768
      883.2000           2207.0999            435.0692             52.1500        5072985.5000          29860.8770              0.2768
      883.3500           2207.0999            435.0692             52.0708        5072985.5000          29860.8770              0.2768
      883.5001           2207.0999            435.0692             51.7011        5072985.5000          29860.8770              0.2768
      883.6500           2207.0999            435.0692             51.2500        5072985.5000          29860.8770              0.2768
      883.8000           2207.0999            435.0692             51.1851        5072985.5000          29860.8770              0.2768
      883.9500           2207.0999            435.0692             50.9500        5072985.5000          29860.8770              0.2768
      884.1000           2207.0999            435.0692             50.9500        5072985.5000          29860.8770              0.2768
      884.2501           2207.0999            435.0692             51.2532        5072985.5000          29860.8770              0.2768
      884.4000           2207.0085            435.1149             53.1153        5072244.0000          29860.8770              0.2769
      884.5500           2206.2820            435.4916             55.2318        5066190.5000          29860.8770              0.2773
      884.7000           2204.9001            436.2683             55.7606        5054000.0000          29860.8770              0.2782
      884.8500           2204.9001            436.2683             55.8381        5054000.0000          29860.8770              0.2782
