~VERSION INFORMATION
 VERS.                          2.0   : CWLS LOG ASCII STANDARD - VERSION 2.0
 WRAP.                          NO    : ONE LINE PER DEPTH STEP
#
~Well Information Section
#MNEM     .UNIT     DATA                DESCRIPTION
#-----    -----     --------            --------------
 STRT     .M        30.0000             : START DEPTH
 STOP     .M        1900.0000           : END DEPTH
 STEP     .M        0.1500              : INCREMENT DEPTH
 NULL     .         -999.2500           : NULL VALUE
 COMP     .                              :
 WELL     .         F03-4               : WELL NAME
 EKB      .M        30.0000             : KELLY BUSHING ELEVATION
 EGL      .M        0.0000              : GROUND LEVEL ELEVATION
 EPD      .M        0.0000              : PERMANENT DATUM ELEVATION
 FLD      .                              :
 LOC      . X = 623256.0000 Y = 6082586.0000: WELL LOCATION
 PROV     .                              :
 SRVC     .                              :
 PROV     .                              :
 DATE     .                              :
 API      .                              :
#
~Curve Information Section
#MNEM     .UNIT               Curve #DESCRIPTION
#-----    -----               ----   --------------
 DEPTH    .M                  : 1     DEPTH
 RHOB     .kg/m3              : 2     Density
 DT       .us/m               : 3     Sonic
 GR       .API                : 4     Gamma Ray
 AI       .(m/s)*(kg/m3)      : 5     P-Impedance
 AI_rel   .(m/s)*(kg/m3)      : 6     P-Impedance_rel
 PHIE     .fraction           : 7     Porosity
~A (ASCII LOG DATA)
# ...
      390.0000           2129.7000            479.0025             30.8836        4446114.0000          -1301.6542              0.3252
      390.1500           2129.7039            478.9903             31.4993        4446236.0000          -1301.6542              0.3252
      390.3000           2129.8000            478.9781             32.6792        4446551.0000          -1301.6542              0.3252
      390.4500           2129.8000            478.9658             32.6792        4446664.5000          -1301.6542              0.3251
      390.6000           2129.8000            478.9534             32.6792        4446779.0000          -1301.6542              0.3251
      390.7500           2129.8000            478.9411             31.6002        4446893.5000          -1301.6542              0.3251
      390.9000           2129.8000            478.9288             30.8678        4447007.5000          -1301.6542              0.3251
      391.0500           2129.8960            478.9162             30.2739        4447325.0000          -1301.6542              0.3251
      391.2000           2129.8999            478.9039             30.2500        4447447.0000          -1301.6542              0.3251
      391.3500           2129.8999            478.8916             30.2500        4447561.5000          -1301.6542              0.3251
      391.5000           2129.8999            478.8794             32.3647        4447675.5000          -1301.6542              0.3250
      391.6500           2129.9895            478.8671             32.5685        4447976.5000          -1468.5229              0.3250
      391.8000           2130.0000            478.8548             32.5685        4448112.0000          -1545.3715              0.3250
      391.9500           2130.0000            478.8426             31.9419        4448226.0000          -1553.1991              0.3250
      392.1000           2130.0000            478.8303             31.2554        4448340.5000          -1553.1991              0.3250
      392.2500           2130.0000            478.8180             29.6525        4448454.5000          -1553.1991              0.3250
      392.4000           2130.0818            478.8058             29.3500        4448739.0000          -1553.1991              0.3250
      392.5500           2130.1001            478.7932             29.3500        4448893.5000          -1553.1991              0.3249
      392.7000           2130.1001            478.7809             29.5852        4449008.5000          -1553.1991              0.3249
      392.8500           2130.1001            478.7686             29.6500        4449122.0000          -1553.1991              0.3249
      393.0000           2130.1753            478.7563             29.7245        4449393.0000          -1553.1991              0.3249
      393.1500           2130.2000            478.7441             30.7801        4449559.0000          -1553.1991              0.3249
      393.3000           2130.2000            478.7318             31.1500        4449673.0000          -1553.1991              0.3249
      393.4500           2130.2000            478.7195             31.1500        4449787.0000          -1553.1991              0.3249
      393.6000           2130.2000            478.7073             30.5307        4449900.5000          -1553.1991              0.3248
      393.7500           2130.2673            478.6950             29.8468        4450155.0000          -1553.1991              0.3248
      393.9000           2130.3000            478.6827             28.8628        4450338.0000          -1553.1991              0.3248
      394.0500           2130.3000            478.6703             28.4500        4450454.0000          -1553.1991              0.3248
      394.2000           2130.3000            478.6579             28.4500        4450569.5000          -1553.1991              0.3248
      394.3500           2130.3608            478.6456             28.6324        4450810.5000          -1553.1991              0.3248
      394.5000           2130.3999            478.6334             29.2829        4451006.0000          -1553.1991              0.3248
      394.6500           2130.3999            478.6211             30.3413        4451120.5000          -1553.1991              0.3248
      394.8000           2130.3999            478.6088             30.8500        4451234.0000          -1553.1991              0.3247
      394.9500           2130.3999            478.5966             30.8500        4451348.0000          -1553.1991              0.3247
      395.1000           2130.4526            478.5843             30.8500        4451573.0000          -1553.1991              0.3247
      395.2500           2130.5000            478.5720             30.8500        4451786.0000          -1553.1991              0.3247
      395.4000           2130.5000            478.5598             30.7012        4451900.0000          -1553.1991              0.3247
      395.5500           2130.5000            478.5473             30.1179        4452015.0000          -1553.1991              0.3247
      395.7000           2130.5000            478.5349             29.6500        4452131.0000          -1403.0360              0.3247
      395.8500           2130.5449            478.5226             29.6500        4452339.5000           -929.8470              0.3247
      396.0000           2130.6001            478.5103             29.6500        4452569.0000           -560.4905              0.3246
      396.1500           2130.6001            478.4981             29.6500        4452683.0000           -560.4905              0.3246
      396.3000           2130.6001            478.4858             29.5429        4452797.0000           -560.4905              0.3246
      396.4500           2130.6384            478.4735             29.2548        4452992.0000           -560.4905              0.3246
      396.6000           2130.7002            478.4612             29.0500        4453234.5000           -560.4905              0.3246
      396.7500           2130.7002            478.4490             29.0500        4453348.5000           -560.4905              0.3246
      396.9000           2130.7002            478.4368             29.0500        4453462.5000           -560.4905              0.3246
      397.0500           2130.7002            478.4244             29.0500        4453577.5000           -560.4905              0.3245
      397.2000           2130.7305            478.4119             29.0500        4453757.5000           -560.4905              0.3245
      397.3500           2130.8000            478.3996             29.0500        4454017.0000           -560.4905              0.3245
      397.5000           2130.8000            478.3873             29.0500        4454131.5000           -560.4905              0.3245
      397.6500           2130.8000            478.3751             29.0500        4454246.0000           -560.4905              0.3245
      397.8000           2130.8240            478.3628             29.2661        4454410.0000           -560.4905              0.3245
      397.9500           2130.8999            478.3506             29.9500        4454682.5000           -560.4905              0.3245
      398.1000           2130.8999            478.3383             29.9500        4454796.5000           -560.4905              0.3245
      398.2500           2130.8999            478.3260             29.8348        4454911.5000           -560.4905              0.3244
      398.4000           2130.8999            478.3137             29.3500        4455026.0000           -560.4905              0.3244
      398.5500           2130.9160            478.3012             29.3020        4455176.0000           -560.4905              0.3244
      398.7000           2131.0000            478.2889             29.0500        4455466.0000           -560.4905              0.3244
      398.8500           2131.0000            478.2766             29.0500        4455580.5000           -560.4905              0.3244
