~VERSION INFORMATION
 VERS.                          2.0   : CWLS LOG ASCII STANDARD - VERSION 2.0
 WRAP.                          NO    : ONE LINE PER DEPTH STEP
#
~Well Information Section
#MNEM     .UNIT     DATA                DESCRIPTION
#-----    -----     --------            --------------
 STRT     .M        30.0000             : START DEPTH
 STOP     .M        1900.0000           : END DEPTH
 STEP     .M        0.1500              : INCREMENT DEPTH
 NULL     .         -999.2500           : NULL VALUE
 COMP     .                              :
 WELL     .         F03-4               : WELL NAME
 EKB      .M        30.0000             : KELLY BUSHING ELEVATION
 EGL      .M        0.0000              : GROUND LEVEL ELEVATION
 EPD      .M        0.0000              : PERMANENT DATUM ELEVATION
 FLD      .                              :
 LOC      . X = 623256.0000 Y = 6082586.0000: WELL LOCATION
 PROV     .                              :
 SRVC     .                              :
 PROV     .                              :
 DATE     .                              :
 API      .                              :
#
~Curve Information Section
#MNEM     .UNIT               Curve #DESCRIPTION
#-----    -----               ----   --------------
 DEPTH    .M                  : 1     DEPTH
 RHOB     .kg/m3              : 2     Density
 DT       .us/m               : 3     Sonic
 GR       .API                : 4     Gamma Ray
 AI       .(m/s)*(kg/m3)      : 5     P-Impedance
 AI_rel   .(m/s)*(kg/m3)      : 6     P-Impedance_rel
 PHIE     .fraction           : 7     Porosity
~A (ASCII LOG DATA)
# ...
      633.0000           2174.9314            453.3046             45.9128        4797948.0000         101513.8750              0.2969
      633.1500           2176.1650            452.6198             46.4500        4807939.5000         101513.8750              0.2961
      633.3000           2178.1968            451.4632             46.4500        4824763.5000         101513.8750              0.2949
      633.4500           2179.9053            450.4881             45.8449        4838988.5000         101513.8750              0.2938
      633.6000           2183.0874            448.6943             44.0783        4865496.5000         101513.8750              0.2918
      633.7500           2185.8000            447.1601             41.7169        4888182.0000         101513.8750              0.2901
      633.9000           2185.8000            447.1601             40.4500        4888182.0000         103080.0781              0.2901
      634.0500           2185.8000            447.1601             40.4500        4888182.0000         105772.4453              0.2901
      634.2000           2185.2913            447.4427             40.9589        4883961.0000         106820.8281              0.2904
      634.3500           2184.6001            447.8264             42.0173        4878229.0000         106820.8281              0.2909
      634.5000           2184.3650            447.9569             43.4907        4876284.0000         106820.8281              0.2910
      634.6500           2182.9099            448.7855             45.7394        4864060.0000         106820.8281              0.2919
      634.8000           2181.0999            449.8248             47.0500        4848776.0000         106820.8281              0.2931
      634.9500           2181.0999            449.8248             47.0500        4848776.0000         106820.8281              0.2931
      635.1000           2180.9028            449.9341             46.9515        4847161.0000         106820.8281              0.2932
      635.2500           2179.2200            450.8857             46.7500        4833236.0000         106820.8281              0.2942
      635.4000           2174.8301            453.3773             46.5835        4797013.5000         106820.8281              0.2970
      635.5500           2171.0999            455.4872             46.0603        4766544.0000         106820.8281              0.2993
      635.7000           2170.5979            455.7701             45.6050        4762492.0000         106820.8281              0.2996
      635.8500           2168.7532            456.8094             45.1011        4747617.0000         106820.8281              0.3008
      636.0000           2167.0056            457.8058             44.5804        4733465.5000         106820.8281              0.3019
      636.1500           2165.3110            458.8024             44.1556        4719490.5000         106820.8281              0.3029
      636.3000           2163.5796            459.7737             43.3900        4705752.5000         106820.8281              0.3040
      636.4500           2162.3000            460.4832             43.0396        4695719.0000         106820.8281              0.3048
      636.6000           2161.7625            460.7926             42.5500        4691414.5000         106820.8281              0.3051
      636.7500           2158.6282            462.5913             42.1847        4666395.0000         106820.8281              0.3071
      636.9000           2155.5774            464.3156             39.5367        4642494.0000         106820.8281              0.3091
      637.0500           2152.8999            465.8127             35.6500        4621814.5000         106820.8281              0.3107
      637.2000           2152.8374            465.8474             35.6500        4621336.5000         106820.8281              0.3107
      637.3500           2151.6819            466.4985             35.7559        4612446.0000         106820.8281              0.3114
      637.5000           2145.5088            470.0228             36.9364        4564696.5000         106820.8281              0.3153
      637.6500           2148.4021            468.3652             38.0837        4587030.0000         106820.8281              0.3135
      637.8000           2152.1221            466.2956             38.6621        4615384.5000         106820.8281              0.3112
      637.9500           2159.9778            461.8319             38.9500        4676990.5000         106820.8281              0.3063
      638.1000           2167.2605            457.6859             38.9500        4735261.5000         106820.8281              0.3018
      638.2500           2174.5999            453.5075             38.9500        4795069.0000         106820.8281              0.2971
      638.4000           2182.2373            449.1938             37.1646        4858124.0000         -19597.0020              0.2923
      638.5500           2182.3000            449.1584             35.6860        4858641.5000         -27665.3711              0.2923
      638.7000           2182.3000            449.1584             34.7859        4858641.5000         -27838.2969              0.2923
      638.8500           2181.1667            449.7877             34.7500        4849326.0000         -27838.2969              0.2931
      639.0000           2171.6309            455.1842             34.7500        4770954.0000         -27838.2969              0.2989
      639.1500           2157.7654            463.0923             34.7500        4659636.5000         -27838.2969              0.3077
      639.3000           2156.5000            463.8143             35.2878        4649490.5000         -27838.2969              0.3085
      639.4500           2137.3967            474.6179             36.1423        4503856.0000         -27838.2969              0.3204
      639.6000           2112.7649            488.6103             36.2500        4324670.5000         -27838.2969              0.3357
      639.7500           2080.6311            506.8645             37.0134        4106019.2500         -27838.2969              0.3558
      639.9000           2085.3174            504.2370             38.1484        4135732.5000         -27838.2969              0.3529
      640.0500           2079.1389            507.7386             40.0638        4095010.0000         -27838.2969              0.3568
      640.2000           2086.6619            503.4496             42.3704        4144892.2500         -27838.2969              0.3521
      640.3500           2093.6252            499.5072             42.8500        4191426.2500         -27838.2969              0.3477
      640.5000           2096.1289            498.0933             42.8500        4208309.5000         -27838.2969              0.3462
      640.6500           2097.9294            497.0457             42.7624        4220804.0000         -27838.2969              0.3450
      640.8000           2099.8728            495.9495             41.9285        4234051.5000         -27838.2969              0.3438
      640.9500           2111.2061            489.5138             40.8528        4313231.0000         -27838.2969              0.3367
      641.1000           2114.9775            487.3644             40.0562        4339623.0000         -27838.2969              0.3344
      641.2500           2115.2131            487.2337             39.2306        4341270.5000         -27838.2969              0.3342
      641.4000           2115.4001            487.1299             38.7484        4342579.5000         -27838.2969              0.3341
      641.5500           2115.0063            487.3484             38.6500        4339824.5000         -27838.2969              0.3344
      641.7000           2115.1843            487.2497             38.6500        4341069.0000         -27838.2969              0.3342
      641.8500           2115.4001            487.1299             40.1478        4342579.5000         -27838.2969              0.3341
