~VERSION INFORMATION
 VERS.                          2.0   : CWLS LOG ASCII STANDARD - VERSION 2.0
 WRAP.                          NO    : ONE LINE PER DEPTH STEP
#
~Well Information Section
#MNEM     .UNIT     DATA                DESCRIPTION
#-----    -----     --------            --------------
 STRT     .M        30.0000             : START DEPTH
 STOP     .M        1900.0000           : END DEPTH
 STEP     .M        0.1500              : INCREMENT DEPTH
 NULL     .         -999.2500           : NULL VALUE
 COMP     .                              :
 WELL     .         F03-4               : WELL NAME
 EKB      .M        30.0000             : KELLY BUSHING ELEVATION
 EGL      .M        0.0000              : GROUND LEVEL ELEVATION
 EPD      .M        0.0000              : PERMANENT DATUM ELEVATION
 FLD      .                              :
 LOC      . X = 623256.0000 Y = 6082586.0000: WELL LOCATION
 PROV     .                              :
 SRVC     .                              :
 PROV     .                              :
 DATE     .                              :
 API      .                              :
#
~Curve Information Section
#MNEM     .UNIT               Curve #DESCRIPTION
#-----    -----               ----   --------------
 DEPTH    .M                  : 1     DEPTH
 RHOB     .kg/m3              : 2     Density
 DT       .us/m               : 3     Sonic
 GR       .API                : 4     Gamma Ray
 AI       .(m/s)*(kg/m3)      : 5     P-Impedance
 AI_rel   .(m/s)*(kg/m3)      : 6     P-Impedance_rel
 PHIE     .fraction           : 7     Porosity
~A (ASCII LOG DATA)
# ...
     1488.0000           2029.2001            536.0925             50.1123        3785167.5000          34042.0938              0.3880
     1488.1500           2028.7343            536.3510             49.3514        3782475.2500          34042.0938              0.3883
     1488.3000           2029.0560            536.1725             48.2380        3784335.0000          34042.0938              0.3881
     1488.4501           2029.2001            536.0925             47.7267        3785167.5000          34042.0938              0.3880
     1488.6001           2028.7631            536.3350             47.2131        3782641.7500          34042.0938              0.3883
     1488.7500           2028.6000            536.4255             47.0500        3781699.2500          34042.0938              0.3884
     1488.9000           2027.8346            536.8891             46.8413        3777010.2500          34042.0938              0.3889
     1489.0500           2027.4999            537.0919             46.5459        3774959.2500          34042.0938              0.3891
     1489.2001           2027.8324            536.8705             45.6523        3777135.5000          34042.0938              0.3888
     1489.3501           2028.3892            536.5427             45.0555        3780480.7500          34042.0938              0.3885
     1489.5000           2029.7389            535.7934             44.9500        3788291.0000          34042.0938              0.3877
     1489.6500           2030.3384            535.4641             42.9174        3791736.0000          34042.0938              0.3873
     1489.8000           2029.4592            535.9728             41.3963        3786499.7500          34042.0938              0.3878
     1489.9501           2028.0820            536.7608             40.8555        3778375.0000          34042.0938              0.3887
     1490.1001           2027.1587            537.2812             40.5907        3772994.2500          21684.5820              0.3893
     1490.2500           2026.9000            537.4248             40.5907        3771504.5000           1378.2566              0.3895
     1490.4000           2026.9000            537.4248             40.8370        3771504.5000          -7493.5674              0.3895
     1490.5500           2026.9000            537.4248             41.0500        3771504.5000          -7493.5674              0.3895
     1490.7001           2027.2026            537.2568             41.0500        3773247.2500          -7493.5674              0.3893
     1490.8501           2027.2070            537.2544             40.9035        3773272.7500          -7493.5674              0.3893
     1491.0000           2026.0498            537.8969             40.5722        3766619.0000          -7493.5674              0.3900
     1491.1500           2023.7762            539.1843             40.2715        3753416.2500          -7493.5674              0.3914
     1491.3000           2020.3953            541.1159             39.7793        3733782.0000          -7493.5674              0.3935
     1491.4501           2017.0807            542.9870             38.8441        3714794.5000          -7493.5674              0.3956
     1491.6001           2015.0056            544.1614             37.9031        3702960.0000          -7493.5674              0.3968
     1491.7500           2012.1553            545.7985             36.9790        3686657.2500          -7493.5674              0.3987
     1491.9000           2008.8489            547.6677             35.6861        3668009.0000          -7493.5674              0.4008
     1492.0500           2007.2710            548.5635             33.9380        3659147.2500          -7493.5674              0.4017
     1492.2001           2004.7675            549.9888             31.7238        3645117.2500          -7493.5674              0.4033
     1492.3501           2001.8468            551.6285             29.5597        3628986.7500          -7493.5674              0.4051
     1492.5000           1999.3386            553.0583             28.1500        3615063.2500          -7493.5674              0.4066
     1492.6500           1996.5599            554.6336             28.1500        3599814.5000          -7493.5674              0.4084
     1492.8000           1992.9000            556.7435             28.2452        3579566.2500          -7493.5674              0.4107
     1492.9501           1993.5083            556.3911             28.6382        3582932.0000          -7493.5674              0.4103
     1493.1001           1996.0715            554.9158             29.4235        3597083.7500          -7493.5674              0.4087
     1493.2500           2000.2086            552.5694             31.6640        3619875.2500          -7493.5674              0.4061
     1493.4000           2005.6978            549.4604             35.9993        3650310.0000          -7493.5674              0.4027
     1493.5500           2007.6200            548.3500             38.6502        3661202.2500          -7493.5674              0.4015
     1493.7001           2008.3217            547.9592             39.9608        3665094.2500          -8470.5654              0.4011
     1493.8501           2010.1927            546.9075             40.4500        3675585.2500         -13689.8193              0.3999
     1494.0000           2015.1331            544.1153             40.4500        3703513.0000         -18166.3164              0.3969
     1494.1500           2018.2495            542.3307             40.4500        3721437.7500         -18166.3164              0.3949
     1494.3000           2019.1399            541.7950             40.4500        3726759.7500         -18166.3164              0.3942
     1494.4501           2018.5123            542.1920             40.4812        3722875.5000         -18166.3164              0.3947
     1494.6001           2016.8468            543.1168             40.8830        3713467.7500         -18166.3164              0.3957
     1494.7500           2016.3716            543.3803             42.3145        3710793.0000         -18166.3164              0.3960
     1494.9000           2017.3785            542.8172             43.1500        3716497.7500         -18166.3164              0.3954
     1495.0500           2018.7568            542.0215             43.1500        3724495.7500         -18166.3164              0.3946
     1495.2001           2020.1221            541.2344             43.0841        3732435.0000         -18166.3164              0.3937
     1495.3501           2020.9631            540.7764             40.4419        3737152.0000         -18166.3164              0.3931
     1495.5000           2016.9000            543.0873             39.5500        3713767.5000         -18166.3164              0.3957
     1495.6500           2015.7098            543.7478             39.2524        3707067.7500         -18166.3164              0.3964
     1495.8000           2011.6968            546.0300             38.3712        3684226.7500         -18166.3164              0.3989
     1495.9501           2011.6000            546.0850             37.7739        3683676.0000         -18166.3164              0.3990
     1496.1001           2015.4733            543.8823             37.7500        3705721.5000         -18166.3164              0.3965
     1496.2500           2016.3500            543.4030             37.7500        3710598.0000         -18166.3164              0.3960
     1496.4000           2017.4032            542.8089             38.8445        3716600.2500         -18166.3164              0.3954
     1496.5500           2020.6354            540.9637             41.3688        3735258.2500         -18166.3164              0.3933
     1496.7001           2021.5282            540.4624             43.2347        3740368.2500         -18166.3164              0.3928
     1496.8501           2021.6000            540.4225             47.8570        3740776.5000         -18166.3164              0.3928
