~VERSION INFORMATION
 VERS.                          2.0   : CWLS LOG ASCII STANDARD - VERSION 2.0
 WRAP.                          NO    : ONE LINE PER DEPTH STEP
#
~Well Information Section
#MNEM     .UNIT     DATA                DESCRIPTION
#-----    -----     --------            --------------
 STRT     .M        30.0000             : START DEPTH
 STOP     .M        1900.0000           : END DEPTH
 STEP     .M        0.1500              : INCREMENT DEPTH
 NULL     .         -999.2500           : NULL VALUE
 COMP     .                              :
 WELL     .         F03-4               : WELL NAME
 EKB      .M        30.0000             : KELLY BUSHING ELEVATION
 EGL      .M        0.0000              : GROUND LEVEL ELEVATION
 EPD      .M        0.0000              : PERMANENT DATUM ELEVATION
 FLD      .                              :
 LOC      . X = 623256.0000 Y = 6082586.0000: WELL LOCATION
 PROV     .                              :
 SRVC     .                              :
 PROV     .                              :
 DATE     .                              :
 API      .                              :
#
~Curve Information Section
#MNEM     .UNIT               Curve #DESCRIPTION
#-----    -----               ----   --------------
 DEPTH    .M                  : 1     DEPTH
 RHOB     .kg/m3              : 2     Density
 DT       .us/m               : 3     Sonic
 GR       .API                : 4     Gamma Ray
 AI       .(m/s)*(kg/m3)      : 5     P-Impedance
 AI_rel   .(m/s)*(kg/m3)      : 6     P-Impedance_rel
 PHIE     .fraction           : 7     Porosity
~A (ASCII LOG DATA)
# ...
     1605.0001           1999.5469            552.9666             32.6500        3616036.2500        -112352.3359              0.4066
     1605.1500           1998.8091            553.3677             32.6500        3612081.7500        -112352.3359              0.4070
     1605.3000           1998.2584            553.6561             32.5646        3609205.2500        -112352.3359              0.4073
     1605.4501           1998.1001            553.7457             32.4690        3608335.0000        -112352.3359              0.4074
     1605.6001           1997.6158            554.0391             32.4690        3605552.5000        -112352.3359              0.4077
     1605.7501           1997.0000            554.4120             32.0595        3602014.0000        -112352.3359              0.4081
     1605.9000           1995.7736            555.0928             31.1108        3595398.7500        -112352.3359              0.4089
     1606.0500           1994.0000            556.0775             30.1628        3585831.5000        -112352.3359              0.4100
     1606.2001           1993.7739            556.2029             29.1523        3584616.7500        -112352.3359              0.4101
     1606.3501           1993.6163            556.2904             28.2337        3583769.2500        -112352.3359              0.4102
     1606.5001           1995.2075            555.3880             27.8500        3592472.5000        -112352.3359              0.4092
     1606.6500           1998.0907            553.7512             27.8500        3608286.7500        -112352.3359              0.4074
     1606.8000           2000.0499            552.6635             27.8500        3618935.7500        -112352.3359              0.4062
     1606.9501           2002.0258            551.5500             28.0277        3629819.0000        -112352.3359              0.4050
     1607.1001           2003.3053            550.8006             28.4500        3637083.0000        -112352.3359              0.4042
     1607.2501           2005.5256            549.5535             28.4500        3649386.7500        -112352.3359              0.4028
     1607.4000           2008.1000            548.0833             28.3010        3663858.7500        -112352.3359              0.4012
     1607.5500           2007.5667            548.3923             27.8500        3660827.7500        -112352.3359              0.4015
     1607.7001           2005.5403            549.5599             27.8500        3649358.5000        -112352.3359              0.4029
     1607.8501           2003.0726            550.9523             27.9706        3635708.7500        -112352.3359              0.4043
     1608.0001           1991.6805            557.4266             28.5054        3573668.5000        -112352.3359              0.4114
     1608.1500           1967.2223            571.2944             28.9523        3443472.2500        -119814.2109              0.4267
     1608.3000           1961.8522            574.3678             30.0413        3415680.5000        -160029.1094              0.4301
     1608.4501           1955.2048            578.1112             30.8781        3382456.7500        -179031.2188              0.4343
     1608.6001           1933.1985            590.6498             33.1306        3273020.0000        -179031.2188              0.4481
     1608.7501           1940.2103            586.6364             34.5130        3307497.2500        -179031.2188              0.4436
     1608.9000           1957.8368            576.6330             35.0500        3395385.0000        -179031.2188              0.4326
     1609.0500           1972.3806            568.3486             35.0500        3470402.5000        -179031.2188              0.4235
     1609.2001           1980.7406            563.6109             34.9995        3514387.7500        -179031.2188              0.4182
     1609.3501           1974.1019            567.4077             34.1012        3479203.0000        -179031.2188              0.4225
     1609.5001           1959.5289            575.6643             32.9500        3403987.5000        -179031.2188              0.4315
     1609.6500           1940.5803            586.4556             32.9476        3309006.0000        -179031.2188              0.4434
     1609.8000           1926.0000            594.7145             32.6500        3238528.5000        -179031.2188              0.4525
     1609.9501           1928.9780            593.0292             32.0544        3252754.2500        -179031.2188              0.4506
     1610.1001           1931.5386            591.5954             31.7571        3264966.5000        -179031.2188              0.4490
     1610.2501           1934.0023            590.1618             31.1734        3277072.7500        -179031.2188              0.4475
     1610.4000           1936.5560            588.7299             31.1500        3289381.2500        -179031.2188              0.4459
     1610.5500           1939.1138            587.2978             31.1500        3301757.7500        -179031.2188              0.4443
     1610.7001           1940.5770            586.4586             32.2034        3308976.0000        -179031.2188              0.4434
     1610.8501           1940.7001            586.3878             32.3049        3309584.7500        -179031.2188              0.4433
     1611.0001           1991.7627            557.3569             32.3049        3575467.5000        -179031.2188              0.4113
     1611.1500           1997.2299            554.2770             32.1766        3603308.5000        -179031.2188              0.4080
     1611.3000           1995.4740            555.2591             32.0662        3593773.2500        -179031.2188              0.4090
     1611.4501           1996.1989            554.8567             29.8026        3597684.7500        -179031.2188              0.4086
     1611.6001           1996.4000            554.7451             28.6148        3598770.2500        -179031.2188              0.4085
     1611.7501           1997.2808            554.2119             27.2490        3603823.0000         -98372.2578              0.4079
     1611.9000           1998.4420            553.5560             26.2435        3610190.7500         -68947.8672              0.4072
     1612.0500           1999.1609            553.1570             25.3587        3614093.5000         -66389.5781              0.4068
     1612.2001           1999.7516            552.8291             25.1500        3617305.7500         -66389.5781              0.4064
     1612.3501           2000.3418            552.5012             25.1500        3620520.5000         -66389.5781              0.4061
     1612.5001           2000.5000            552.4133             25.1500        3621382.5000         -66389.5781              0.4060
     1612.6500           2000.9227            552.1788             25.1500        3623687.0000         -66389.5781              0.4057
     1612.8000           2001.1001            552.0803             25.1500        3624654.0000         -66389.5781              0.4056
     1612.9501           2001.5033            551.8566             25.7549        3626854.7500         -66389.5781              0.4053
     1613.1001           2002.0282            551.5287             26.4440        3629962.2500         -66389.5781              0.4050
     1613.2501           2003.3525            550.7744             27.8026        3637342.0000         -66389.5781              0.4042
     1613.4000           2004.0000            550.4150             29.1995        3640889.2500         -66389.5781              0.4038
     1613.5500           2004.0000            550.4150             30.0152        3640889.2500         -66389.5781              0.4038
     1613.7001           2003.6447            550.6122             30.2500        3638939.7500         -66389.5781              0.4040
     1613.8501           2003.7462            550.5559             30.2500        3639496.7500         -66389.5781              0.4039
