~VERSION INFORMATION
 VERS.                          2.0   : CWLS LOG ASCII STANDARD - VERSION 2.0
 WRAP.                          NO    : ONE LINE PER DEPTH STEP
#
~Well Information Section
#MNEM     .UNIT     DATA                DESCRIPTION
#-----    -----     --------            --------------
 STRT     .M        30.0000             : START DEPTH
 STOP     .M        1900.0000           : END DEPTH
 STEP     .M        0.1500              : INCREMENT DEPTH
 NULL     .         -999.2500           : NULL VALUE
 COMP     .                              :
 WELL     .         F03-4               : WELL NAME
 EKB      .M        30.0000             : KELLY BUSHING ELEVATION
 EGL      .M        0.0000              : GROUND LEVEL ELEVATION
 EPD      .M        0.0000              : PERMANENT DATUM ELEVATION
 FLD      .                              :
 LOC      . X = 623256.0000 Y = 6082586.0000: WELL LOCATION
 PROV     .                              :
 SRVC     .                              :
 PROV     .                              :
 DATE     .                              :
 API      .                              :
#
~Curve Information Section
#MNEM     .UNIT               Curve #DESCRIPTION
#-----    -----               ----   --------------
 DEPTH    .M                  : 1     DEPTH
 RHOB     .kg/m3              : 2     Density
 DT       .us/m               : 3     Sonic
 GR       .API                : 4     Gamma Ray
 AI       .(m/s)*(kg/m3)      : 5     P-Impedance
 AI_rel   .(m/s)*(kg/m3)      : 6     P-Impedance_rel
 PHIE     .fraction           : 7     Porosity
~A (ASCII LOG DATA)
# ...
      147.0000           2094.5999            498.9336             19.7500        4198153.5000           1028.5303              0.3471
      147.1500           2094.6560            498.9211             19.7500        4198370.5000           1028.5303              0.3471
      147.3000           2094.7002            498.9089             19.9132        4198562.5000           1028.5303              0.3471
      147.4500           2094.7002            498.8967             20.0500        4198665.5000           1028.5303              0.3471
      147.6000           2094.7002            498.8844             20.2036        4198769.0000           1028.5303              0.3470
      147.7500           2094.7002            498.8721             20.3500        4198872.0000           1028.5303              0.3470
      147.9000           2094.7480            498.8598             20.3500        4199071.5000           1028.5303              0.3470
      148.0500           2094.8000            498.8476             20.4892        4199278.5000           1028.5303              0.3470
      148.2000           2094.8000            498.8353             20.9188        4199382.5000           1028.5303              0.3470
      148.3500           2094.8000            498.8230             21.2500        4199486.0000           1028.5303              0.3470
      148.5000           2094.8416            498.8106             21.2500        4199673.5000           1028.5303              0.3470
      148.6500           2094.8999            498.7982             21.1300        4199895.0000           1028.5303              0.3470
      148.8000           2094.8999            498.7859             20.8348        4199998.5000           1028.5303              0.3470
      148.9500           2094.8999            498.7737             20.6500        4200101.5000           1028.5303              0.3469
      149.1000           2094.8999            498.7614             20.6500        4200204.5000           1028.5303              0.3469
      149.2500           2094.9336            498.7491             20.6500        4200375.5000           1028.5303              0.3469
      149.4000           2095.0000            498.7368             20.6500        4200612.0000           1028.5303              0.3469
      149.5500           2095.0000            498.7246             20.6500        4200715.5000           1028.5303              0.3469
      149.7000           2095.0000            498.7123             20.6500        4200818.5000           1028.5303              0.3469
      149.8500           2095.0271            498.7000             21.0580        4200976.5000           1028.5303              0.3469
      150.0000           2095.0999            498.6877             22.5341        4201226.5000           1028.5303              0.3468
      150.1500           2095.0999            498.6752             23.7708        4201332.0000            981.7500              0.3468
      150.3000           2095.0999            498.6629             24.1532        4201435.5000            827.6002              0.3468
      150.4500           2095.0999            498.6506             24.0485        4201538.5000            806.6125              0.3468
      150.6000           2095.1191            498.6384             23.5760        4201680.5000            806.6125              0.3468
      150.7500           2095.2000            498.6261             23.1083        4201946.0000            806.6125              0.3468
      150.9000           2095.2000            498.6139             22.2341        4202049.5000            806.6125              0.3468
      151.0500           2095.2000            498.6016             21.3598        4202153.0000            806.6125              0.3467
      151.2000           2095.2129            498.5893             20.4855        4202282.0000            806.6125              0.3467
      151.3500           2095.3000            498.5770             19.6480        4202560.5000            806.6125              0.3467
      151.5000           2095.3000            498.5648             19.1500        4202664.0000            806.6125              0.3467
      151.6500           2095.3000            498.5521             19.1500        4202770.5000            806.6125              0.3467
      151.8000           2095.3000            498.5399             19.1692        4202873.5000            806.6125              0.3467
      151.9500           2095.3049            498.5276             19.4933        4202986.5000            806.6125              0.3467
      152.1000           2095.4001            498.5154             20.3692        4203281.5000            806.6125              0.3466
      152.2500           2095.4001            498.5031             20.9500        4203384.0000            806.6125              0.3466
      152.4000           2095.4001            498.4908             20.9500        4203488.0000            806.6125              0.3466
      152.5500           2095.4001            498.4784             20.9500        4203593.0000            806.6125              0.3466
      152.7000           2095.4983            498.4661             18.8835        4203893.5000            806.6125              0.3466
      152.8500           2095.5000            498.4538             18.8500        4204000.0000            806.6125              0.3466
      153.0000           2095.5000            498.4415             18.8500        4204104.0000            806.6125              0.3466
      153.1500           2095.5000            498.4290             21.3773        4204210.0000            806.6125              0.3466
      153.3000           2095.5000            498.4167             23.4821        4204313.5000            806.6125              0.3465
      153.4500           2095.5903            498.4044             24.1924        4204598.0000            806.6125              0.3465
      153.6000           2095.5999            498.3921             25.8486        4204721.0000            806.6125              0.3465
      153.7500           2095.5999            498.3799             26.0500        4204824.0000            806.6125              0.3465
      153.9000           2095.5999            498.3676             26.0500        4204928.0000            806.6125              0.3465
      154.0500           2095.5999            498.3553             26.0500        4205031.5000            806.6125              0.3465
      154.2000           2095.6824            498.3431             26.0500        4205300.5000            567.5333              0.3465
      154.3500           2095.7000            498.3308             26.0500        4205439.5000            326.8119              0.3464
      154.5000           2095.7000            498.3185             26.0500        4205542.5000            281.7536              0.3464
      154.6500           2095.7000            498.3060             26.0500        4205648.5000            281.7536              0.3464
      154.8000           2095.7759            498.2936             26.0500        4205905.5000            281.7536              0.3464
      154.9500           2095.7998            498.2814             25.4511        4206057.0000            281.7536              0.3464
      155.1000           2095.7998            498.2692             24.8216        4206160.0000            281.7536              0.3464
      155.2500           2095.7998            498.2569             24.2495        4206263.5000            281.7536              0.3464
      155.4000           2095.7998            498.2446             23.6772        4206367.5000            281.7536              0.3463
      155.5500           2095.8682            498.2323             23.1049        4206608.0000            281.7536              0.3463
      155.7000           2095.9001            498.2201             22.5327        4206775.5000            281.7536              0.3463
      155.8500           2095.9001            498.2078             21.9605        4206879.5000            281.7536              0.3463
