~VERSION INFORMATION
 VERS.                          2.0   : CWLS LOG ASCII STANDARD - VERSION 2.0
 WRAP.                          NO    : ONE LINE PER DEPTH STEP
#
~Well Information Section
#MNEM     .UNIT     DATA                DESCRIPTION
#-----    -----     --------            --------------
 STRT     .M        30.0000             : START DEPTH
 STOP     .M        1900.0000           : END DEPTH
 STEP     .M        0.1500              : INCREMENT DEPTH
 NULL     .         -999.2500           : NULL VALUE
 COMP     .                              :
 WELL     .         F03-4               : WELL NAME
 EKB      .M        30.0000             : KELLY BUSHING ELEVATION
 EGL      .M        0.0000              : GROUND LEVEL ELEVATION
 EPD      .M        0.0000              : PERMANENT DATUM ELEVATION
 FLD      .                              :
 LOC      . X = 623256.0000 Y = 6082586.0000: WELL LOCATION
 PROV     .                              :
 SRVC     .                              :
 PROV     .                              :
 DATE     .                              :
 API      .                              :
#
~Curve Information Section
#MNEM     .UNIT               Curve #DESCRIPTION
#-----    -----               ----   --------------
 DEPTH    .M                  : 1     DEPTH
 RHOB     .kg/m3              : 2     Density
 DT       .us/m               : 3     Sonic
 GR       .API                : 4     Gamma Ray
 AI       .(m/s)*(kg/m3)      : 5     P-Impedance
 AI_rel   .(m/s)*(kg/m3)      : 6     P-Impedance_rel
 PHIE     .fraction           : 7     Porosity
~A (ASCII LOG DATA)
# ...
     1848.0001           2201.8000            438.0669             31.7500        5026172.5000        -149471.5938              0.2801
     1848.1500           2202.7847            437.4768             31.7500        5035203.5000        -149471.5938              0.2795
     1848.3000           2209.9651            433.4038             31.7500        5099109.5000        -149471.5938              0.2750
     1848.4501           2207.2488            434.9829             30.0364        5074340.0000        -149471.5938              0.2767
     1848.6001           2205.6016            435.9117             29.9500        5059745.5000        -149471.5938              0.2777
     1848.7501           2195.7454            441.4862             29.9500        4973623.5000        -146774.5938              0.2839
     1848.9000           2194.4478            442.2353             30.2214        4962173.0000        -124385.4531              0.2848
     1849.0500           2192.0010            443.6167             30.6158        4941213.0000        -122052.2500              0.2862
     1849.2001           2189.8684            444.8118             31.0690        4923139.5000        -122052.2500              0.2875
     1849.3501           2187.3723            446.2660             31.5288        4901509.0000        -122052.2500              0.2892
     1849.5001           2184.3103            447.9760             31.9882        4875967.5000        -122052.2500              0.2911
     1849.6500           2185.1199            447.5173             32.4479        4882764.0000        -122052.2500              0.2906
     1849.8000           2185.3999            447.3599             32.9070        4885104.5000        -122052.2500              0.2904
     1849.9501           2188.3323            445.6969             33.3668        4909936.0000        -122052.2500              0.2886
     1850.1001           2191.1958            444.0981             33.8262        4934048.5000        -122052.2500              0.2868
     1850.2501           2192.1804            443.5346             34.2861        4942524.0000        -122052.2500              0.2862
     1850.4000           2199.7432            439.2238             34.7454        5008467.0000        -122052.2500              0.2814
     1850.5500           2202.6641            437.5490             35.2049        5034097.5000        -122052.2500              0.2796
     1850.7001           2202.0872            437.8948             35.6647        5028807.0000        -122052.2500              0.2799
     1850.8501           2196.3672            441.1470             36.1241        4978908.5000        -122052.2500              0.2835
     1851.0001           2189.9819            444.7856             36.5838        4923762.5000        -122052.2500              0.2875
     1851.1500           2185.2427            447.4546             37.0431        4883762.0000        -122052.2500              0.2905
     1851.3000           2183.4758            448.4536             37.5026        4868900.5000        -122052.2500              0.2916
     1851.4501           2179.6331            450.6439             37.9620        4836791.0000        -122052.2500              0.2940
     1851.6001           2177.1917            452.0416             38.4218        4816353.0000        -122052.2500              0.2955
     1851.7501           2173.5171            454.1364             38.8812        4786127.5000        -122052.2500              0.2978
     1851.9000           2169.6213            456.3302             39.3409        4754516.0000        -122052.2500              0.3002
     1852.0500           2168.5000            456.9528             39.5348        4745567.0000        -122052.2500              0.3009
     1852.2001           2166.7874            457.9464             39.5348        4731555.0000        -122052.2500              0.3020
     1852.3501           2164.8103            459.0727             39.2212        4715618.0000        -122052.2500              0.3033
     1852.5001           2164.5603            459.1947             38.7938        4713819.0000        -122052.2500              0.3034
     1852.6500           2172.2725            454.8133             38.6500        4776742.0000        -122052.2500              0.2986
     1852.8000           2179.8440            450.5110             38.6500        4838603.5000        -122052.2500              0.2939
     1852.9501           2182.6055            448.9405             38.9336        4861755.0000        -122052.2500              0.2921
     1853.1001           2185.3999            447.3599             39.2500        4885104.5000        -122052.2500              0.2904
     1853.2501           2185.1794            447.4921             39.2500        4883169.0000        -139060.1719              0.2905
     1853.4000           2184.4333            447.9141             38.9954        4876906.0000        -164010.7812              0.2910
     1853.5500           2183.1873            448.6265             37.9148        4866387.0000        -168614.5625              0.2918
     1853.7001           2180.4175            450.2166             36.6147        4843097.0000        -168614.5625              0.2935
     1853.8501           2177.3115            451.9696             36.0240        4817386.0000        -168614.5625              0.2954
     1854.0001           2176.7837            452.2645             35.2175        4813078.0000        -168614.5625              0.2957
     1854.1500           2176.2278            452.5593             34.1400        4808713.5000        -168614.5625              0.2961
     1854.3000           2174.8835            453.3456             33.2618        4797429.5000        -168614.5625              0.2970
     1854.4501           2172.1125            454.9291             32.6710        4774627.5000        -168614.5625              0.2987
     1854.6001           2170.3030            455.9317             32.6648        4760151.0000        -168614.5625              0.2998
     1854.7501           2168.7017            456.8582             32.6500        4747011.5000        -168614.5625              0.3008
     1854.9000           2167.2468            457.6759             32.6556        4735351.0000        -168614.5625              0.3017
     1855.0500           2169.9971            456.1301             32.7402        4757413.5000        -168614.5625              0.3001
     1855.2001           2172.1772            454.8957             32.9500        4775143.5000        -168614.5625              0.2987
     1855.3501           2175.5081            452.9908             33.0799        4802544.0000        -168614.5625              0.2965
     1855.5001           2176.7439            452.2739             33.8515        4812919.0000        -168614.5625              0.2958
     1855.6500           2179.4189            450.7438             35.6573        4835183.0000        -168614.5625              0.2941
     1855.8000           2176.2314            452.5570             38.5016        4808747.0000        -168614.5625              0.2961
     1855.9501           2175.2327            453.1469             39.2500        4800282.5000        -168614.5625              0.2967
     1856.1001           2174.5872            453.4912             39.2500        4795219.0000        -168614.5625              0.2971
     1856.2501           2176.3999            452.4560             39.1416        4810191.5000        -168614.5625              0.2960
     1856.4000           2176.3999            452.4560             38.0373        4810191.5000        -168614.5625              0.2960
     1856.5500           2176.6838            452.2965             35.2170        4812524.0000        -168614.5625              0.2958
     1856.7001           2180.1287            450.3560             33.7848        4840940.0000        -168614.5625              0.2937
     1856.8501           2186.8999            446.4941             32.9329        4897937.0000        -168614.5625              0.2894
