~VERSION INFORMATION
 VERS.                          2.0   : CWLS LOG ASCII STANDARD - VERSION 2.0
 WRAP.                          NO    : ONE LINE PER DEPTH STEP
#
~Well Information Section
#MNEM     .UNIT     DATA                DESCRIPTION
#-----    -----     --------            --------------
 STRT     .M        30.0000             : START DEPTH
 STOP     .M        1900.0000           : END DEPTH
 STEP     .M        0.1500              : INCREMENT DEPTH
 NULL     .         -999.2500           : NULL VALUE
 COMP     .                              :
 WELL     .         F03-4               : WELL NAME
 EKB      .M        30.0000             : KELLY BUSHING ELEVATION
 EGL      .M        0.0000              : GROUND LEVEL ELEVATION
 EPD      .M        0.0000              : PERMANENT DATUM ELEVATION
 FLD      .                              :
 LOC      . X = 623256.0000 Y = 6082586.0000: WELL LOCATION
 PROV     .                              :
 SRVC     .                              :
 PROV     .                              :
 DATE     .                              :
 API      .                              :
#
~Curve Information Section
#MNEM     .UNIT               Curve #DESCRIPTION
#-----    -----               ----   --------------
 DEPTH    .M                  : 1     DEPTH
 RHOB     .kg/m3              : 2     Density
 DT       .us/m               : 3     Sonic
 GR       .API                : 4     Gamma Ray
 AI       .(m/s)*(kg/m3)      : 5     P-Impedance
 AI_rel   .(m/s)*(kg/m3)      : 6     P-Impedance_rel
 PHIE     .fraction           : 7     Porosity
~A (ASCII LOG DATA)
# ...
     1002.0001           2227.4861            423.4576             65.8155        5260241.5000         135775.2500              0.2641
     1002.1500           2226.6997            423.9178             65.6500        5252669.0000         135775.2500              0.2645
     1002.3000           2226.5999            423.9777             65.6500        5251691.0000         135775.2500              0.2646
     1002.4500           2223.7568            425.5901             66.3416        5225143.5000         135775.2500              0.2664
     1002.6000           2220.8689            427.2038             66.7757        5198633.5000         135775.2500              0.2682
     1002.7501           2218.2854            428.6787             66.8500        5174721.0000         135775.2500              0.2698
     1002.9000           2216.0872            429.9377             66.8500        5154449.0000         135775.2500              0.2712
     1003.0500           2214.7253            430.6953             66.4275        5142212.0000         135775.2500              0.2720
     1003.2000           2214.3311            430.9149             66.0435        5138673.5000         135775.2500              0.2723
     1003.3500           2214.2327            430.9746             64.9419        5137734.0000         135775.2500              0.2724
     1003.5001           2214.1343            431.0340             62.2845        5136797.5000         135775.2500              0.2724
     1003.6500           2214.0359            431.0934             60.7659        5135861.0000         135775.2500              0.2725
     1003.8000           2213.9377            431.1508             59.8011        5134950.0000         135775.2500              0.2726
     1003.9500           2213.5959            431.3546             58.8027        5131732.5000         135775.2500              0.2728
     1004.1000           2211.8018            432.3593             58.0948        5115677.5000         135775.2500              0.2738
     1004.2501           2211.6223            432.4524             57.8500        5114148.0000         135775.2500              0.2739
     1004.4000           2212.0198            432.2396             57.8500        5117578.5000         135775.2500              0.2737
     1004.5500           2212.6709            431.8819             58.1766        5123331.5000         135775.2500              0.2734
     1004.7000           2213.6641            431.3137             59.8764        5132377.0000         135775.2500              0.2727
     1004.8500           2213.0806            431.6328             62.4905        5127236.5000         135775.2500              0.2731
     1005.0001           2213.0942            431.6252             64.7257        5127359.5000         135775.2500              0.2731
     1005.1500           2214.5725            430.8061             66.6259        5140538.0000         135775.2500              0.2722
     1005.3000           2216.0891            429.9480             68.5261        5154328.0000         135775.2500              0.2712
     1005.4500           2217.8066            428.9691             69.5608        5170094.0000         134246.2188              0.2701
     1005.6000           2216.4668            429.7386             69.5608        5157794.5000         127424.8828              0.2710
     1005.7501           2211.6519            432.4702             69.4314        5114049.0000         120933.6406              0.2740
     1005.9000           2208.9600            433.9902             68.4098        5089884.5000         120933.6406              0.2757
     1006.0500           2207.7927            434.6310             66.8040        5079707.0000         120933.6406              0.2764
     1006.2000           2205.3582            436.0316             66.0290        5057822.0000         120933.6406              0.2779
     1006.3500           2203.0125            437.3790             64.9101        5036853.5000         120933.6406              0.2793
     1006.5001           2202.6702            437.5656             63.2472        5033922.5000         120933.6406              0.2796
     1006.6500           2204.2327            436.6876             62.4578        5047636.5000         120933.6406              0.2786
     1006.8000           2205.8479            435.7602             62.0500        5062068.5000         120933.6406              0.2776
     1006.9500           2203.8289            436.9189             62.0500        5044101.0000         120933.6406              0.2789
     1007.1000           2199.7002            439.2661             62.8665        5007671.0000         120933.6406              0.2815
     1007.2501           2199.7002            439.2661             65.6511        5007671.0000         120933.6406              0.2815
     1007.4000           2199.7002            439.2661             67.3952        5007671.0000         120933.6406              0.2815
     1007.5500           2199.7002            439.2661             67.3952        5007671.0000         120933.6406              0.2815
     1007.7000           2199.7002            439.2661             67.2194        5007671.0000         120933.6406              0.2815
     1007.8500           2199.5850            439.3237             66.1467        5006753.0000         120933.6406              0.2816
     1008.0001           2199.2944            439.4601             64.3441        5004539.0000         120933.6406              0.2817
     1008.1500           2200.4568            438.8223             63.8500        5014464.0000         120933.6406              0.2809
     1008.3000           2202.1033            437.8938             63.5900        5028859.0000         120933.6406              0.2799
     1008.4500           2204.0283            436.7912             61.9731        5045955.5000         120933.6406              0.2787
     1008.6000           2204.3723            436.5713             61.2142        5049309.5000         120933.6406              0.2785
     1008.7501           2200.2195            438.9562             59.3500        5012390.0000         120933.6406              0.2811
     1008.9000           2200.4163            438.8477             59.3259        5014077.5000         120933.6406              0.2810
     1009.0500           2200.6191            438.7053             59.0500        5016168.0000         120933.6406              0.2809
     1009.2000           2200.9146            438.5602             59.0500        5018501.0000         120933.6406              0.2807
     1009.3500           2201.3896            438.2608             59.0500        5023025.0000         120933.6406              0.2804
     1009.5001           2207.0999            435.0692             59.0500        5072985.5000         120933.6406              0.2768
     1009.6500           2207.0999            435.0692             59.0500        5072985.5000         120933.6406              0.2768
     1009.8000           2213.3999            431.4721             59.6500        5129879.5000         120933.6406              0.2729
     1009.9500           2219.1079            428.2269             60.5357        5182091.5000         120933.6406              0.2694
     1010.1000           2216.1016            429.9160             63.1373        5154734.5000         103969.6328              0.2711
     1010.2501           2214.2856            430.9805             65.2051        5137788.0000          21135.9219              0.2723
     1010.4000           2211.3904            432.6123             67.3138        5111720.5000          17023.7910              0.2742
     1010.5500           2208.8074            434.0543             67.4500        5088787.0000          17023.7910              0.2758
     1010.7000           2212.9409            431.7301             67.7213        5125773.5000          17023.7910              0.2732
     1010.8500           2214.8210            430.6735             68.0164        5142695.0000          17023.7910              0.2720
