~VERSION INFORMATION
 VERS.                          2.0   : CWLS LOG ASCII STANDARD - VERSION 2.0
 WRAP.                          NO    : ONE LINE PER DEPTH STEP
#
~Well Information Section
#MNEM     .UNIT     DATA                DESCRIPTION
#-----    -----     --------            --------------
 STRT     .M        30.0000             : START DEPTH
 STOP     .M        1900.0000           : END DEPTH
 STEP     .M        0.1500              : INCREMENT DEPTH
 NULL     .         -999.2500           : NULL VALUE
 COMP     .                              :
 WELL     .         F03-4               : WELL NAME
 EKB      .M        30.0000             : KELLY BUSHING ELEVATION
 EGL      .M        0.0000              : GROUND LEVEL ELEVATION
 EPD      .M        0.0000              : PERMANENT DATUM ELEVATION
 FLD      .                              :
 LOC      . X = 623256.0000 Y = 6082586.0000: WELL LOCATION
 PROV     .                              :
 SRVC     .                              :
 PROV     .                              :
 DATE     .                              :
 API      .                              :
#
~Curve Information Section
#MNEM     .UNIT               Curve #DESCRIPTION
#-----    -----               ----   --------------
 DEPTH    .M                  : 1     DEPTH
 RHOB     .kg/m3              : 2     Density
 DT       .us/m               : 3     Sonic
 GR       .API                : 4     Gamma Ray
 AI       .(m/s)*(kg/m3)      : 5     P-Impedance
 AI_rel   .(m/s)*(kg/m3)      : 6     P-Impedance_rel
 PHIE     .fraction           : 7     Porosity
~A (ASCII LOG DATA)
# ...
      273.0000           2112.7998            488.5991             20.3500        4324199.5000           1154.6987              0.3357
      273.1500           2112.8328            488.5868             20.3500        4324375.5000           1154.6987              0.3357
      273.3000           2112.8999            488.5746             21.1927        4324621.5000           1154.6987              0.3357
      273.4500           2112.8999            488.5623             23.2276        4324730.0000           1154.6987              0.3357
      273.6000           2112.8999            488.5499             23.6500        4324839.5000           1154.6987              0.3357
      273.7500           2112.8999            488.5374             23.6500        4324950.0000           1154.6987              0.3357
      273.9000           2112.9248            488.5251             23.6500        4325110.0000           1154.6987              0.3357
      274.0500           2113.0000            488.5128             23.6500        4325372.5000           1154.6987              0.3356
      274.2000           2113.0000            488.5006             23.6500        4325481.0000           1154.6987              0.3356
      274.3500           2113.0000            488.4883             23.6500        4325589.5000           1154.6987              0.3356
      274.5000           2113.0183            488.4760             23.6500        4325736.0000           1154.6987              0.3356
      274.6500           2113.1001            488.4637             23.6500        4326012.0000           1154.6987              0.3356
      274.8000           2113.1001            488.4515             23.6500        4326120.5000           1154.6987              0.3356
      274.9500           2113.1001            488.4392             23.6092        4326229.0000           1154.6987              0.3356
      275.1000           2113.1001            488.4269             23.2780        4326338.5000           1154.6987              0.3355
      275.2500           2113.1106            488.4144             22.7500        4326470.5000           1154.6987              0.3355
      275.4000           2113.2000            488.4021             22.7500        4326762.5000           1154.6987              0.3355
      275.5500           2113.2000            488.3898             22.7852        4326871.5000           1154.6987              0.3355
      275.7000           2113.2000            488.3775             23.2653        4326980.0000           1134.4625              0.3355
      275.8500           2113.2039            488.3653             23.7486        4327096.5000            782.2201              0.3355
      276.0000           2113.3000            488.3531             24.4453        4327401.5000            492.1054              0.3355
      276.1500           2113.3000            488.3408             25.3352        4327511.0000            492.1054              0.3355
      276.3000           2113.3000            488.3284             26.2319        4327621.0000            492.1054              0.3354
      276.4500           2113.3000            488.3160             27.1288        4327730.0000            492.1054              0.3354
      276.6000           2113.3000            488.3038             27.5401        4327839.0000            492.1054              0.3354
      276.7500           2113.3960            488.2912             27.5500        4328147.0000            492.1054              0.3354
      276.9000           2113.3999            488.2789             27.5500        4328264.0000            492.1054              0.3354
      277.0500           2113.3999            488.2666             27.2715        4328373.0000            492.1054              0.3354
      277.2000           2113.3999            488.2544             26.9764        4328481.5000            492.1054              0.3354
      277.3500           2113.4895            488.2421             26.1436        4328773.5000            492.1054              0.3353
      277.5000           2113.5000            488.2299             26.0500        4328903.5000            492.1054              0.3353
      277.6500           2113.5000            488.2176             26.0500        4329012.5000            492.1054              0.3353
      277.8000           2113.5000            488.2053             26.0500        4329121.5000            492.1054              0.3353
      277.9500           2113.5000            488.1930             26.2996        4329230.5000            492.1054              0.3353
      278.1000           2113.5818            488.1808             26.5948        4329506.5000            492.1054              0.3353
      278.2500           2113.6001            488.1682             27.1300        4329655.5000            492.1054              0.3353
      278.4000           2113.6001            488.1559             28.6611        4329765.0000            492.1054              0.3352
      278.5500           2113.6001            488.1436             29.0500        4329873.5000            492.1054              0.3352
      278.7000           2113.6001            488.1313             29.0500        4329982.0000            492.1054              0.3352
      278.8500           2113.6736            488.1191             27.9458        4330241.5000            492.1054              0.3352
      279.0000           2113.7000            488.1068             26.0379        4330404.0000            492.1054              0.3352
      279.1500           2113.7000            488.0946             24.3940        4330513.0000            492.1054              0.3352
      279.3000           2113.7000            488.0823             23.7436        4330622.5000            492.1054              0.3352
      279.4500           2113.7673            488.0700             23.6500        4330869.0000            492.1054              0.3352
      279.6000           2113.8000            488.0577             23.6500        4331045.5000            492.1054              0.3351
      279.7500           2113.8000            488.0453             24.4181        4331155.5000            492.1054              0.3351
      279.9000           2113.8000            488.0330             25.2245        4331265.5000            466.7820              0.3351
      280.0500           2113.8000            488.0206             25.6324        4331374.5000            438.9688              0.3351
      280.2000           2113.8591            488.0083             25.7500        4331605.0000            430.8758              0.3351
      280.3500           2113.8999            487.9960             25.7500        4331797.0000            430.8758              0.3351
      280.5000           2113.8999            487.9838             25.5820        4331906.0000            430.8758              0.3351
      280.6500           2113.8999            487.9715             25.4500        4332015.0000            430.8758              0.3350
      280.8000           2113.9529            487.9593             25.4500        4332232.0000            430.8758              0.3350
      280.9500           2114.0000            487.9470             25.6036        4332438.0000            430.8758              0.3350
      281.1000           2114.0000            487.9348             25.9908        4332546.5000            430.8758              0.3350
      281.2500           2114.0000            487.9223             26.2904        4332656.5000            430.8758              0.3350
      281.4000           2114.0000            487.9099             26.3500        4332767.0000            430.8758              0.3350
      281.5500           2114.0449            487.8976             26.3500        4332968.0000            430.8758              0.3350
      281.7000           2114.1001            487.8854             26.0907        4333190.5000            430.8758              0.3350
      281.8500           2114.1001            487.8731             25.6252        4333299.0000            430.8758              0.3349
