~VERSION INFORMATION
 VERS.                          2.0   : CWLS LOG ASCII STANDARD - VERSION 2.0
 WRAP.                          NO    : ONE LINE PER DEPTH STEP
#
~Well Information Section
#MNEM     .UNIT     DATA                DESCRIPTION
#-----    -----     --------            --------------
 STRT     .M        30.0000             : START DEPTH
 STOP     .M        1900.0000           : END DEPTH
 STEP     .M        0.1500              : INCREMENT DEPTH
 NULL     .         -999.2500           : NULL VALUE
 COMP     .                              :
 WELL     .         F03-4               : WELL NAME
 EKB      .M        30.0000             : KELLY BUSHING ELEVATION
 EGL      .M        0.0000              : GROUND LEVEL ELEVATION
 EPD      .M        0.0000              : PERMANENT DATUM ELEVATION
 FLD      .                              :
 LOC      . X = 623256.0000 Y = 6082586.0000: WELL LOCATION
 PROV     .                              :
 SRVC     .                              :
 PROV     .                              :
 DATE     .                              :
 API      .                              :
#
~Curve Information Section
#MNEM     .UNIT               Curve #DESCRIPTION
#-----    -----               ----   --------------
 DEPTH    .M                  : 1     DEPTH
 RHOB     .kg/m3              : 2     Density
 DT       .us/m               : 3     Sonic
 GR       .API                : 4     Gamma Ray
 AI       .(m/s)*(kg/m3)      : 5     P-Impedance
 AI_rel   .(m/s)*(kg/m3)      : 6     P-Impedance_rel
 PHIE     .fraction           : 7     Porosity
~A (ASCII LOG DATA)
# ...
     1245.0000           2107.4443            491.6628             95.1459        4286363.0000         184482.0938              0.3391
     1245.1500           2106.2922            492.2979             93.8981        4278493.5000         184482.0938              0.3398
     1245.3000           2106.4255            492.2421             92.6153        4279266.0000         184482.0938              0.3397
     1245.4501           2110.0176            490.2151             90.3288        4304294.5000         184482.0938              0.3376
     1245.6001           2113.1001            488.4623             87.4934        4326025.0000         174099.2344              0.3356
     1245.7500           2112.2153            488.9654             82.7673        4319787.5000         135340.6562              0.3362
     1245.9000           2108.0593            491.3270             79.6292        4290570.5000         118900.0703              0.3388
     1246.0500           2102.3508            494.5608             75.2190        4251077.0000         118900.0703              0.3423
     1246.2001           2092.4199            500.1831             73.6995        4183370.0000         118900.0703              0.3485
     1246.3501           2085.9165            503.8857             73.4041        4139663.7500         118900.0703              0.3525
     1246.5000           2085.9333            503.8610             73.1092        4139950.2500         118900.0703              0.3525
     1246.6500           2093.0659            499.7992             72.8500        4187832.0000         118900.0703              0.3481
     1246.8000           2098.3665            496.7963             72.7875        4223888.5000         118900.0703              0.3448
     1246.9501           2108.8169            490.8904             72.2500        4295917.0000         118900.0703              0.3382
     1247.1001           2113.3101            488.3416             72.1414        4327528.5000         118900.0703              0.3355
     1247.2500           2116.2305            486.6656             70.7331        4348435.5000         118900.0703              0.3337
     1247.4000           2120.1240            484.4519             70.4500        4376335.0000         118900.0703              0.3312
     1247.5500           2120.5559            484.2132             70.4427        4379392.0000         118900.0703              0.3309
     1247.7001           2114.7715            487.4792             70.1500        4338178.5000         118900.0703              0.3345
     1247.8501           2111.3000            489.4613             70.1500        4313518.0000         118900.0703              0.3367
     1248.0000           2106.0388            492.4370             69.8522        4276770.0000         118900.0703              0.3400
     1248.1500           2100.8250            495.3859             69.5571        4240789.5000         118900.0703              0.3432
     1248.3000           2096.7637            497.6954             67.2457        4212950.5000         118900.0703              0.3457
     1248.4501           2092.7268            499.9911             65.7330        4185535.2500         118900.0703              0.3483
     1248.6001           2094.7280            498.8831             65.0930        4198838.0000         118900.0703              0.3470
     1248.7500           2096.9995            497.5715             65.0500        4214472.0000         118900.0703              0.3456
     1248.9000           2101.9480            494.7699             64.5125        4248355.5000         118900.0703              0.3425
     1249.0500           2108.6628            490.9387             64.1859        4295206.5000         118900.0703              0.3383
     1249.2001           2111.0554            489.5971             62.8538        4311825.0000         118900.0703              0.3368
     1249.3501           2113.2520            488.3305             58.3218        4327509.0000         118900.0703              0.3354
     1249.5000           2117.0955            486.1886             57.0507        4354493.5000         118900.0703              0.3331
     1249.6500           2123.0232            482.8073             55.2244        4397300.5000         115377.1562              0.3294
     1249.8000           2123.6401            482.4298             54.8356        4401968.0000          43803.6719              0.3289
     1249.9501           2123.1863            482.7149             54.8356        4398427.5000          26090.7500              0.3292
     1250.1001           2122.7156            482.9798             54.9469        4395040.5000          26090.7500              0.3295
     1250.2500           2122.2239            483.2444             55.1080        4391616.5000          26090.7500              0.3298
     1250.4000           2116.7246            486.3684             56.2546        4352188.5000          26090.7500              0.3333
     1250.5500           2111.4155            489.3818             57.2981        4314491.5000          26090.7500              0.3366
     1250.7001           2108.4795            491.0664             57.5500        4293683.5000          26090.7500              0.3385
     1250.8501           2108.2131            491.2305             57.7565        4291699.0000          26090.7500              0.3386
     1251.0000           2109.1399            490.6786             58.2536        4298416.0000          26090.7500              0.3380
     1251.1500           2115.2712            487.1839             59.0402        4341977.5000          26090.7500              0.3342
     1251.3000           2119.0684            485.0377             59.5421        4368876.0000          26090.7500              0.3319
     1251.4501           2119.5000            484.7982             59.6500        4371922.0000          26090.7500              0.3316
     1251.6001           2117.3699            486.0145             59.6500        4356622.5000          26090.7500              0.3329
     1251.7500           2114.2832            487.7827             59.2948        4334494.5000          26090.7500              0.3349
     1251.9000           2107.6848            491.5322             58.7044        4288163.0000          26090.7500              0.3390
     1252.0500           2100.7288            495.4719             58.4500        4239908.5000          26090.7500              0.3433
     1252.2001           2094.2632            499.1461             58.4500        4195803.0000          26090.7500              0.3473
     1252.3501           2087.9968            502.7045             58.4500        4153579.7500          26090.7500              0.3512
     1252.5000           2083.7073            505.1405             58.9110        4125027.7500          26090.7500              0.3539
     1252.6500           2082.2979            505.9500             60.6901        4115620.0000          26090.7500              0.3548
     1252.8000           2085.0964            504.3430             62.9141        4134333.7500          26090.7500              0.3530
     1252.9501           2089.7515            501.7013             67.3345        4165362.0000          26090.7500              0.3501
     1253.1001           2092.2241            500.3038             71.4845        4181908.2500          26090.7500              0.3486
     1253.2500           2092.2837            500.2641             71.6500        4182359.2500          26090.7500              0.3486
     1253.4000           2090.5032            501.2839             71.6500        4170320.2500          26090.7500              0.3497
     1253.5500           2086.5183            503.5182             70.9294        4143918.7500          26090.7500              0.3522
     1253.7001           2082.3557            505.8836             68.6978        4116296.2500          31371.0059              0.3547
     1253.8501           2077.6199            508.5878             66.8500        4085159.7500          45572.7109              0.3577
