~VERSION INFORMATION
 VERS.                          2.0   : CWLS LOG ASCII STANDARD - VERSION 2.0
 WRAP.                          NO    : ONE LINE PER DEPTH STEP
#
~Well Information Section
#MNEM     .UNIT     DATA                DESCRIPTION
#-----    -----     --------            --------------
 STRT     .M        30.0000             : START DEPTH
 STOP     .M        1900.0000           : END DEPTH
 STEP     .M        0.1500              : INCREMENT DEPTH
 NULL     .         -999.2500           : NULL VALUE
 COMP     .                              :
 WELL     .         F03-4               : WELL NAME
 EKB      .M        30.0000             : KELLY BUSHING ELEVATION
 EGL      .M        0.0000              : GROUND LEVEL ELEVATION
 EPD      .M        0.0000              : PERMANENT DATUM ELEVATION
 FLD      .                              :
 LOC      . X = 623256.0000 Y = 6082586.0000: WELL LOCATION
 PROV     .                              :
 SRVC     .                              :
 PROV     .                              :
 DATE     .                              :
 API      .                              :
#
~Curve Information Section
#MNEM     .UNIT               Curve #DESCRIPTION
#-----    -----               ----   --------------
 DEPTH    .M                  : 1     DEPTH
 RHOB     .kg/m3              : 2     Density
 DT       .us/m               : 3     Sonic
 GR       .API                : 4     Gamma Ray
 AI       .(m/s)*(kg/m3)      : 5     P-Impedance
 AI_rel   .(m/s)*(kg/m3)      : 6     P-Impedance_rel
 PHIE     .fraction           : 7     Porosity
~A (ASCII LOG DATA)
# ...
     1362.0000           2138.9141            473.7983             64.1500        4514398.0000        -139997.5000              0.3195
     1362.1500           2140.5999            472.8074             64.1500        4527424.5000        -139997.5000              0.3184
     1362.3000           2142.0879            471.9672             65.0427        4538637.5000        -139997.5000              0.3174
     1362.4501           2143.7600            471.0121             66.2217        4551391.0000          14256.0840              0.3164
     1362.6001           2145.4321            470.0571             66.2500        4564196.0000          43969.3594              0.3153
     1362.7500           2147.5781            468.8773             66.2500        4580259.0000          45048.4180              0.3141
     1362.9000           2148.1641            468.5012             65.1359        4585184.0000          45048.4180              0.3136
     1363.0500           2149.2944            467.8696             63.6818        4593790.5000          45048.4180              0.3130
     1363.2001           2153.0764            465.7206             63.0120        4623122.5000          45048.4180              0.3106
     1363.3501           2155.0845            464.5998             62.9500        4638586.0000          45048.4180              0.3093
     1363.5000           2155.2998            464.4803             62.9500        4640240.0000          45048.4180              0.3092
     1363.6500           2153.7739            465.3276             63.4587        4628514.5000          45048.4180              0.3101
     1363.8000           2152.5010            466.0340             63.5500        4618765.5000          45048.4180              0.3109
     1363.9501           2150.4229            467.2330             63.5500        4602471.0000          45048.4180              0.3122
     1364.1001           2149.5195            467.7604             63.3098        4595343.5000          45048.4180              0.3128
     1364.2500           2148.4590            468.3594             63.2500        4587203.0000          45048.4180              0.3134
     1364.4000           2147.3550            468.9953             62.7891        4578629.5000          45048.4180              0.3141
     1364.5500           2152.3625            466.1385             62.0449        4617518.5000          45048.4180              0.3110
     1364.7001           2154.5417            464.9012             61.3332        4634408.5000          45048.4180              0.3097
     1364.8501           2149.2209            467.9349             61.1500        4593101.0000          45048.4180              0.3130
     1365.0000           2150.7627            467.0318             61.1500        4605228.0000          45048.4180              0.3120
     1365.1500           2155.5352            464.3114             63.0086        4642480.0000          45048.4180              0.3090
     1365.3000           2154.6477            464.8242             64.6565        4635429.0000          45048.4180              0.3096
     1365.4501           2149.6914            467.6667             65.4440        4596704.0000          45048.4180              0.3127
     1365.6001           2150.6455            467.1040             65.6500        4604258.5000          45048.4180              0.3121
     1365.7500           2151.6128            466.5619             65.6500        4611638.0000          45048.4180              0.3115
     1365.9000           2153.3274            465.5972             64.5559        4624900.0000          45048.4180              0.3105
     1366.0500           2156.0625            464.0241             62.6061        4646457.5000          45048.4180              0.3087
     1366.2001           2159.0737            462.3297             59.8489        4670016.5000          45048.4180              0.3068
     1366.3501           2160.8801            461.2959             58.2818        4684370.0000          45048.4180              0.3057
     1366.5000           2160.5015            461.5119             58.1500        4681360.0000          45048.4180              0.3059
     1366.6500           2159.3662            462.1674             58.1500        4672262.5000         111725.7891              0.3067
     1366.8000           2157.0056            463.5063             58.6114        4653700.5000         199030.7344              0.3081
     1366.9501           2153.5625            465.4721             60.2412        4626649.5000         225383.4375              0.3103
     1367.1001           2152.3289            466.1584             61.8828        4617165.5000         225383.4375              0.3111
     1367.2500           2153.1785            465.6581             62.3500        4623948.0000         225383.4375              0.3105
     1367.4000           2153.7690            465.3304             62.3500        4628473.5000         225383.4375              0.3101
     1367.5500           2155.3528            464.4270             61.7019        4640907.0000         225383.4375              0.3091
     1367.7001           2157.5000            463.2035             60.8500        4657783.0000         225383.4375              0.3078
     1367.8501           2158.4402            462.6815             60.8500        4665067.0000         225383.4375              0.3072
     1368.0000           2158.7998            462.4817             61.4265        4667859.5000         225383.4375              0.3070
     1368.1500           2159.2412            462.2368             62.7913        4671290.5000         225383.4375              0.3067
     1368.3000           2160.0352            461.7835             63.7614        4677593.5000         225383.4375              0.3063
     1368.4501           2160.1338            461.7017             64.1500        4678635.0000         225383.4375              0.3062
     1368.6001           2160.2642            461.6353             64.1500        4679591.0000         225383.4375              0.3061
     1368.7500           2160.4304            461.5690             64.0586        4680623.0000         225383.4375              0.3060
     1368.9000           2160.5288            461.5026             63.5908        4681509.5000         225383.4375              0.3059
     1369.0500           2160.6272            461.4363             62.4594        4682396.0000         225383.4375              0.3059
     1369.2001           2160.7258            461.3699             60.6118        4683283.5000         225383.4375              0.3058
     1369.3501           2160.8481            461.3036             59.0116        4684221.5000         225383.4375              0.3057
     1369.5000           2161.0225            461.2373             58.8590        4685272.5000         225383.4375              0.3056
     1369.6500           2161.0791            461.1936             58.4719        4685839.0000         225383.4375              0.3056
     1369.8000           2160.9424            461.2574             57.2105        4684895.0000         225383.4375              0.3056
     1369.9501           2160.6472            461.4167             56.3500        4682638.5000         225383.4375              0.3058
     1370.1001           2160.3679            461.5758             56.3500        4680418.0000         225383.4375              0.3060
     1370.2500           2160.1570            461.7353             56.3500        4678345.0000         225383.4375              0.3062
     1370.4000           2159.8616            461.8943             56.3500        4676095.0000         225383.4375              0.3063
     1370.5500           2159.5664            462.0536             56.3500        4673844.0000         225383.4375              0.3065
     1370.7001           2159.2710            462.2129             56.3500        4671594.5000         225383.4375              0.3067
     1370.8501           2158.9839            462.3691             56.5433        4669394.5000         223882.3594              0.3069
