~VERSION INFORMATION
 VERS.                          2.0   : CWLS LOG ASCII STANDARD - VERSION 2.0
 WRAP.                          NO    : ONE LINE PER DEPTH STEP
#
~Well Information Section
#MNEM     .UNIT     DATA                DESCRIPTION
#-----    -----     --------            --------------
 STRT     .M        30.0000             : START DEPTH
 STOP     .M        1900.0000           : END DEPTH
 STEP     .M        0.1500              : INCREMENT DEPTH
 NULL     .         -999.2500           : NULL VALUE
 COMP     .                              :
 WELL     .         F03-4               : WELL NAME
 EKB      .M        30.0000             : KELLY BUSHING ELEVATION
 EGL      .M        0.0000              : GROUND LEVEL ELEVATION
 EPD      .M        0.0000              : PERMANENT DATUM ELEVATION
 FLD      .                              :
 LOC      . X = 623256.0000 Y = 6082586.0000: WELL LOCATION
 PROV     .                              :
 SRVC     .                              :
 PROV     .                              :
 DATE     .                              :
 API      .                              :
#
~Curve Information Section
#MNEM     .UNIT               Curve #DESCRIPTION
#-----    -----               ----   --------------
 DEPTH    .M                  : 1     DEPTH
 RHOB     .kg/m3              : 2     Density
 DT       .us/m               : 3     Sonic
 GR       .API                : 4     Gamma Ray
 AI       .(m/s)*(kg/m3)      : 5     P-Impedance
 AI_rel   .(m/s)*(kg/m3)      : 6     P-Impedance_rel
 PHIE     .fraction           : 7     Porosity
~A (ASCII LOG DATA)
# ...
      516.0000           2123.8999            482.2835             67.4151        4403841.0000          56481.8750              0.3288
      516.1500           2123.8999            482.2835             67.9368        4403841.0000          56481.8750              0.3288
      516.3000           2123.8999            482.2835             68.4589        4403841.0000          56481.8750              0.3288
      516.4500           2123.8999            482.2835             68.9807        4403841.0000          56481.8750              0.3288
      516.6000           2123.8999            482.2835             69.5024        4403841.0000          56481.8750              0.3288
      516.7500           2123.8999            482.2835             70.0243        4403841.0000          56481.8750              0.3288
      516.9000           2123.8999            482.2835             70.6123        4403841.0000          56481.8750              0.3288
      517.0500           2123.8999            482.2835             71.4111        4403841.0000          56481.8750              0.3288
      517.2000           2123.8999            482.2835             72.0774        4403841.0000          56481.8750              0.3288
      517.3500           2123.8999            482.2835             72.4588        4403841.0000          56481.8750              0.3288
      517.5000           2123.8999            482.2835             72.9581        4403841.0000          56481.8750              0.3288
      517.6500           2123.8999            482.2835             72.7516        4403841.0000          56481.8750              0.3288
      517.8000           2123.8999            482.2835             72.5500        4403841.0000          44058.7266              0.3288
      517.9500           2123.8999            482.2835             72.9292        4403841.0000         -34203.4844              0.3288
      518.1000           2123.8999            482.2835             73.1500        4403841.0000         -75833.1406              0.3288
      518.2500           2123.8999            482.2835             73.1500        4403841.0000         -75833.1406              0.3288
      518.4000           2123.8999            482.2835             74.0263        4403841.0000         -75833.1406              0.3288
      518.5500           2123.8999            482.2835             75.1615        4403841.0000         -75833.1406              0.3288
      518.7000           2123.8999            482.2835             75.7157        4403841.0000         -75833.1406              0.3288
      518.8500           2123.8999            482.2835             75.8500        4403841.0000         -75833.1406              0.3288
      519.0000           2123.8999            482.2835             75.8500        4403841.0000         -75833.1406              0.3288
      519.1500           2123.8999            482.2835             75.2451        4403841.0000         -75833.1406              0.3288
      519.3000           2123.8999            482.2835             73.3319        4403841.0000         -75833.1406              0.3288
      519.4500           2123.8999            482.2835             71.1002        4403841.0000         -75833.1406              0.3288
      519.6000           2123.8999            482.2835             67.6873        4403841.0000         -75833.1406              0.3288
      519.7500           2123.8999            482.2835             64.7500        4403841.0000         -75833.1406              0.3288
      519.9000           2123.8999            482.2835             64.7500        4403841.0000         -75833.1406              0.3288
      520.0500           2123.8999            482.2835             65.3627        4403841.0000         -75833.1406              0.3288
      520.2000           2123.8999            482.2835             66.2500        4403841.0000         -75833.1406              0.3288
      520.3500           2123.8999            482.2835             66.2500        4403841.0000         -75833.1406              0.3288
      520.5000           2123.8999            482.2835             66.0362        4403841.0000         -75833.1406              0.3288
      520.6500           2123.8999            482.2835             65.0347        4403841.0000         -75833.1406              0.3288
      520.8000           2123.8999            482.2835             63.8500        4403841.0000         -75833.1406              0.3288
      520.9500           2123.8999            482.2835             63.6627        4403841.0000         -75833.1406              0.3288
      521.1000           2123.8999            482.2835             63.1611        4403841.0000         -75833.1406              0.3288
      521.2500           2123.8999            482.2835             62.4460        4403841.0000         -75833.1406              0.3288
      521.4000           2123.8999            482.2835             61.1500        4403841.0000         -75833.1406              0.3288
      521.5500           2123.8999            482.2835             61.1500        4403841.0000         -75833.1406              0.3288
      521.7000           2123.8999            482.2835             60.7324        4403841.0000         -75833.1406              0.3288
      521.8500           2123.8999            482.2835             59.3500        4403841.0000         -75833.1406              0.3288
      522.0000           2123.8999            482.2835             59.3500        4403841.0000         -71410.2266              0.3288
      522.1500           2123.8999            482.2835             59.3500        4403841.0000         -53455.8125              0.3288
      522.3000           2123.8999            482.2835             59.3500        4403841.0000         -52173.4688              0.3288
      522.4500           2123.8999            482.2835             59.3500        4403841.0000         -52173.4688              0.3288
      522.6000           2123.8999            482.2835             59.3500        4403841.0000         -52173.4688              0.3288
      522.7500           2123.8999            482.2835             59.4220        4403841.0000         -52173.4688              0.3288
      522.9000           2123.8999            482.2835             59.9500        4403841.0000         -52173.4688              0.3288
      523.0500           2123.8999            482.2835             59.9500        4403841.0000         -52173.4688              0.3288
      523.2000           2123.8999            482.2835             60.8145        4403841.0000         -52173.4688              0.3288
      523.3500           2123.8999            482.2835             71.9500        4403841.0000         -52173.4688              0.3288
      523.5000           2123.8999            482.2835             71.9500        4403841.0000         -52173.4688              0.3288
      523.6500           2123.8999            482.2835             71.9140        4403841.0000         -52173.4688              0.3288
      523.8000           2123.8999            482.2835             70.4378        4403841.0000         -52173.4688              0.3288
      523.9500           2123.8999            482.2835             68.9500        4403841.0000         -52173.4688              0.3288
      524.1000           2123.8999            482.2835             68.0570        4403841.0000         -52173.4688              0.3288
      524.2500           2123.8999            482.2835             68.0500        4403841.0000         -52173.4688              0.3288
      524.4000           2123.8999            482.2835             68.0500        4403841.0000         -52173.4688              0.3288
      524.5500           2123.8999            482.2835             70.3162        4403841.0000         -52173.4688              0.3288
      524.7000           2123.8999            482.2835             72.3996        4403841.0000         -52173.4688              0.3288
      524.8500           2123.8999            482.2835             72.5500        4403841.0000         -52173.4688              0.3288
