~VERSION INFORMATION
 VERS.                          2.0   : CWLS LOG ASCII STANDARD - VERSION 2.0
 WRAP.                          NO    : ONE LINE PER DEPTH STEP
#
~Well Information Section
#MNEM     .UNIT     DATA                DESCRIPTION
#-----    -----     --------            --------------
 STRT     .M        30.0000             : START DEPTH
 STOP     .M        1900.0000           : END DEPTH
 STEP     .M        0.1500              : INCREMENT DEPTH
 NULL     .         -999.2500           : NULL VALUE
 COMP     .                              :
 WELL     .         F03-4               : WELL NAME
 EKB      .M        30.0000             : KELLY BUSHING ELEVATION
 EGL      .M        0.0000              : GROUND LEVEL ELEVATION
 EPD      .M        0.0000              : PERMANENT DATUM ELEVATION
 FLD      .                              :
 LOC      . X = 623256.0000 Y = 6082586.0000: WELL LOCATION
 PROV     .                              :
 SRVC     .                              :
 PROV     .                              :
 DATE     .                              :
 API      .                              :
#
~Curve Information Section
#MNEM     .UNIT               Curve #DESCRIPTION
#-----    -----               ----   --------------
 DEPTH    .M                  : 1     DEPTH
 RHOB     .kg/m3              : 2     Density
 DT       .us/m               : 3     Sonic
 GR       .API                : 4     Gamma Ray
 AI       .(m/s)*(kg/m3)      : 5     P-Impedance
 AI_rel   .(m/s)*(kg/m3)      : 6     P-Impedance_rel
 PHIE     .fraction           : 7     Porosity
~A (ASCII LOG DATA)
# ...
     1119.0000           2166.3999            458.1519             65.1184        4728563.0000          60825.3828              0.3022
     1119.1500           2166.3999            458.1519             66.2500        4728563.0000          60825.3828              0.3022
     1119.3000           2166.3999            458.1519             66.2500        4728563.0000          60825.3828              0.3022
     1119.4501           2166.3999            458.1519             65.9620        4728563.0000          60825.3828              0.3022
     1119.6001           2166.6787            457.9972             65.0314        4730770.0000          60825.3828              0.3021
     1119.7500           2167.8076            457.3705             64.1965        4739727.0000          60825.3828              0.3014
     1119.9000           2174.1143            453.7974             63.9290        4791318.0000          60825.3828              0.2975
     1120.0500           2183.3079            448.5687             63.6810        4867349.0000          60825.3828              0.2917
     1120.2001           2190.6033            444.4242             63.5500        4929371.5000          60825.3828              0.2872
     1120.3501           2200.8254            438.6256             63.5500        5017828.5000          60825.3828              0.2807
     1120.5000           2207.0999            435.0692             63.7708        5072985.5000          60825.3828              0.2768
     1120.6500           2207.0999            435.0692             64.4671        5072985.5000          60825.3828              0.2768
     1120.8000           2206.8982            435.1700             65.0500        5071348.5000          60825.3828              0.2769
     1120.9501           2206.5000            435.3691             65.1462        5068114.0000          60825.3828              0.2772
     1121.1001           2205.0698            436.1901             65.8978        5055350.5000          60825.3828              0.2781
     1121.2500           2201.4829            438.2398             67.2365        5023468.5000          60825.3828              0.2803
     1121.4000           2199.8574            439.1555             67.4500        5009313.0000          60825.3828              0.2813
     1121.5500           2194.0630            442.4629             67.4500        4959145.0000          60825.3828              0.2850
     1121.7001           2183.8000            448.2592             67.7220        4871735.5000          60369.4688              0.2914
     1121.8501           2184.4065            447.9226             68.9320        4876762.5000          58340.1719              0.2910
     1122.0000           2186.5000            446.7605             70.5252        4894121.0000          56295.2109              0.2897
     1122.1500           2187.0952            446.4151             71.9500        4899257.5000          56295.2109              0.2893
     1122.3000           2189.7942            444.8561             71.9500        4922480.0000          56295.2109              0.2876
     1122.4501           2190.7000            444.3622             71.8057        4929987.5000          56295.2109              0.2871
     1122.6001           2190.5408            444.4491             71.0500        4928667.0000          56295.2109              0.2872
     1122.7500           2189.5361            445.0003             71.0500        4920303.0000          56295.2109              0.2878
     1122.9000           2188.7407            445.4635             71.0500        4913412.0000          56295.2109              0.2883
     1123.0500           2185.4006            447.3482             71.0500        4885259.5000          56295.2109              0.2903
     1123.2001           2180.6516            450.0822             71.2433        4845007.5000          56295.2109              0.2933
     1123.3501           2179.7979            450.5310             73.5271        4838299.5000          56295.2109              0.2939
     1123.5000           2175.0251            453.2686             74.6644        4798563.5000          56295.2109              0.2968
     1123.6500           2167.6389            457.4639             74.9891        4738383.0000          56295.2109              0.3015
     1123.8000           2168.8000            456.8195             76.1549        4747607.5000          56295.2109              0.3008
     1123.9501           2168.8020            456.8185             76.4500        4747623.0000          56295.2109              0.3008
     1124.1001           2171.0999            455.4872             76.4500        4766544.0000          56295.2109              0.2993
     1124.2500           2171.0999            455.4872             77.6314        4766544.0000          56295.2109              0.2993
     1124.4000           2171.0999            455.4872             78.5214        4766544.0000          56295.2109              0.2993
     1124.5500           2168.9104            456.7556             80.5492        4748516.5000          56295.2109              0.3007
     1124.7001           2168.8000            456.8195             80.9310        4747607.5000          56295.2109              0.3008
     1124.8501           2174.1375            453.7541             81.4894        4791470.0000          56295.2109              0.2974
     1125.0000           2174.5999            453.4885             81.9188        4795270.5000          56295.2109              0.2971
     1125.1500           2181.4353            449.6447             81.9591        4851526.0000          56295.2109              0.2928
     1125.3000           2182.3000            449.1584             81.9591        4858641.5000          56295.2109              0.2923
     1125.4501           2182.7280            448.8734             79.8114        4862681.0000          56295.2109              0.2920
     1125.6001           2183.3042            448.5456             77.9371        4867520.0000          56295.2109              0.2917
     1125.7500           2182.9050            448.7672             77.6500        4864227.0000          56295.2109              0.2919
     1125.9000           2178.5984            451.2475             77.6500        4827990.5000          56295.2109              0.2947
     1126.0500           2176.1736            452.6151             78.1255        4808005.0000          56295.2109              0.2962
     1126.2001           2175.3342            453.0810             78.2500        4801204.5000          37771.6016              0.2966
     1126.3501           2173.9067            453.9158             78.4782        4789234.5000          -7364.7373              0.2975
     1126.5000           2173.5000            454.1549             78.7733        4785812.5000         -19878.3594              0.2978
     1126.6500           2170.8782            455.6101             79.9424        4764796.5000         -19878.3594              0.2994
     1126.8000           2167.4080            457.5762             82.0587        4736740.5000         -19878.3594              0.3016
     1126.9501           2166.3999            458.1519             86.7201        4728563.0000         -19878.3594              0.3022
     1127.1001           2166.3999            458.1519             88.4500        4728563.0000         -19878.3594              0.3022
     1127.2500           2164.0742            459.4798             88.4500        4709863.0000         -19878.3594              0.3037
     1127.4000           2161.7341            460.7975             87.6728        4691296.0000         -19878.3594              0.3051
     1127.5500           2161.0999            461.1496             86.4913        4686332.0000         -19878.3594              0.3055
     1127.7001           2161.0999            461.1496             85.8650        4686332.0000         -19878.3594              0.3055
     1127.8501           2161.0999            461.1496             85.5699        4686332.0000         -19878.3594              0.3055
