~VERSION INFORMATION
 VERS.                          2.0   : CWLS LOG ASCII STANDARD - VERSION 2.0
 WRAP.                          NO    : ONE LINE PER DEPTH STEP
#
~Well Information Section
#MNEM     .UNIT     DATA                DESCRIPTION
#-----    -----     --------            --------------
 STRT     .M        30.0000             : START DEPTH
 STOP     .M        1900.0000           : END DEPTH
 STEP     .M        0.1500              : INCREMENT DEPTH
 NULL     .         -999.2500           : NULL VALUE
 COMP     .                              :
 WELL     .         F03-4               : WELL NAME
 EKB      .M        30.0000             : KELLY BUSHING ELEVATION
 EGL      .M        0.0000              : GROUND LEVEL ELEVATION
 EPD      .M        0.0000              : PERMANENT DATUM ELEVATION
 FLD      .                              :
 LOC      . X = 623256.0000 Y = 6082586.0000: WELL LOCATION
 PROV     .                              :
 SRVC     .                              :
 PROV     .                              :
 DATE     .                              :
 API      .                              :
#
~Curve Information Section
#MNEM     .UNIT               Curve #DESCRIPTION
#-----    -----               ----   --------------
 DEPTH    .M                  : 1     DEPTH
 RHOB     .kg/m3              : 2     Density
 DT       .us/m               : 3     Sonic
 GR       .API                : 4     Gamma Ray
 AI       .(m/s)*(kg/m3)      : 5     P-Impedance
 AI_rel   .(m/s)*(kg/m3)      : 6     P-Impedance_rel
 PHIE     .fraction           : 7     Porosity
~A (ASCII LOG DATA)
       30.0000           -999.2500           -999.2500           -999.2500           -999.2500           -999.2500           -999.2500
       30.1500           2077.7849            508.5176           -999.2500        4085964.0000          -3257.4102              0.3577
       30.3000           2077.8000            508.5054           -999.2500        4086092.7500          -3257.4102              0.3576
       30.4500           2077.8000            508.4931           -999.2500        4086191.0000          -3257.4102              0.3576
       30.6000           2077.8000            508.4809           -999.2500        4086289.5000          -3257.4102              0.3576
       30.7500           2077.8000            508.4686           -999.2500        4086388.5000          -3257.4102              0.3576
       30.9000           2077.8767            508.4563           -999.2500        4086638.0000          -3257.4102              0.3576
       31.0500           2077.8999            508.4440           -999.2500        4086782.2500          -3038.2156              0.3576
       31.2000           2077.8999            508.4315           -999.2500        4086882.5000          -2880.4651              0.3576
       31.3500           2077.8999            508.4192           -999.2500        4086981.7500          -2849.8110              0.3575
       31.5000           2077.9705            508.4069           -999.2500        4087219.0000          -2849.8110              0.3575
       31.6500           2078.0000            508.3946           -999.2500        4087376.0000          -2849.8110              0.3575
       31.8000           2078.0000            508.3824           -999.2500        4087474.5000          -2849.8110              0.3575
       31.9500           2078.0000            508.3701           -999.2500        4087573.0000          -2849.8110              0.3575
       32.1000           2078.0000            508.3578           -999.2500        4087671.7500          -2849.8110              0.3575
       32.2500           2078.0623            508.3456           -999.2500        4087893.0000          -2849.8110              0.3575
       32.4000           2078.0999            508.3333           -999.2500        4088065.5000          -2849.8110              0.3574
       32.5500           2078.0999            508.3210           -999.2500        4088164.2500          -2849.8110              0.3574
       32.7000           2078.0999            508.3086           -999.2500        4088264.2500          -2849.8110              0.3574
       32.8500           2078.1560            508.2962           -999.2500        4088474.7500          -2849.8110              0.3574
       33.0000           2078.2002            508.2839           -999.2500        4088660.2500          -2849.8110              0.3574
       33.1500           2078.2002            508.2717           -999.2500        4088758.7500          -2849.8110              0.3574
       33.3000           2078.2002            508.2594           -999.2500        4088857.5000          -2849.8110              0.3574
       33.4500           2078.2002            508.2471           -999.2500        4088956.2500          -2849.8110              0.3574
       33.6000           2078.2480            508.2348           -999.2500        4089149.2500          -2849.8110              0.3573
       33.7500           2078.3000            508.2226           -999.2500        4089350.0000          -2849.8110              0.3573
       33.9000           2078.3000            508.2103           -999.2500        4089449.0000          -2849.8110              0.3573
       34.0500           2078.3000            508.1980           -999.2500        4089547.7500          -2849.8110              0.3573
       34.2000           2078.3416            508.1856           -999.2500        4089729.0000          -2849.8110              0.3573
       34.3500           2078.3999            508.1732           -999.2500        4089944.2500          -2849.8110              0.3573
       34.5000           2078.3999            508.1609           -999.2500        4090043.2500          -2849.8110              0.3573
       34.6500           2078.3999            508.1486           -999.2500        4090141.7500          -2849.8110              0.3573
       34.8000           2078.3999            508.1364           -999.2500        4090240.2500          -2849.8110              0.3572
       34.9500           2078.4336            508.1241           -999.2500        4090405.2500          -2392.9712              0.3572
       35.1000           2078.5000            508.1118           -999.2500        4090635.0000          -1439.6902              0.3572
       35.2500           2078.5000            508.0996           -999.2500        4090733.7500          -1332.4686              0.3572
       35.4000           2078.5000            508.0873           -999.2500        4090832.5000          -1332.4686              0.3572
       35.5500           2078.5271            508.0750           -999.2500        4090984.5000          -1332.4686              0.3572
       35.7000           2078.5999            508.0627           -999.2500        4091227.0000          -1332.4686              0.3572
       35.8500           2078.5999            508.0501           -999.2500        4091328.2500          -1332.4686              0.3571
       36.0000           2078.5999            508.0379           -999.2500        4091426.7500          -1332.4686              0.3571
       36.1500           2078.5999            508.0256           -999.2500        4091525.7500          -1332.4686              0.3571
       36.3000           2078.6191            508.0134           -999.2500        4091662.2500          -1332.4686              0.3571
       36.4500           2078.7000            508.0011           -999.2500        4091920.0000          -1332.4686              0.3571
       36.6000           2078.7000            507.9888           -999.2500        4092019.0000          -1332.4686              0.3571
       36.7500           2078.7000            507.9766           -999.2500        4092117.7500          -1332.4686              0.3571
       36.9000           2078.7000            507.9643           -999.2500        4092216.7500          -1332.4686              0.3570
       37.0500           2078.7112            507.9520           -999.2500        4092337.7500          -1332.4686              0.3570
       37.2000           2078.8000            507.9397           -999.2500        4092611.7500          -1332.4686              0.3570
       37.3500           2078.8000            507.9272           -999.2500        4092712.7500          -1332.4686              0.3570
       37.5000           2078.8000            507.9149           -999.2500        4092811.5000          -1332.4686              0.3570
       37.6500           2078.8049            507.9026           -999.2500        4092920.0000          -1332.4686              0.3570
       37.8000           2078.9001            507.8903           -999.2500        4093207.0000          -1332.4686              0.3570
       37.9500           2078.9001            507.8781           -999.2500        4093305.5000          -1332.4686              0.3569
       38.1000           2078.9001            507.8658           -999.2500        4093404.5000          -1332.4686              0.3569
       38.2500           2078.9001            507.8533           -999.2500        4093505.2500          -1332.4686              0.3569
       38.4000           2078.9001            507.8411           -999.2500        4093603.7500          -1332.4686              0.3569
       38.5500           2078.9968            507.8288           -999.2500        4093893.2500          -1332.4686              0.3569
       38.7000           2079.0000            507.8165           -999.2500        4093998.5000          -1332.4686              0.3569
       38.8500           2079.0000            507.8040           -999.2500        4094100.0000          -1250.8829              0.3569
