~VERSION INFORMATION
 VERS.                          2.0   : CWLS LOG ASCII STANDARD - VERSION 2.0
 WRAP.                          NO    : ONE LINE PER DEPTH STEP
#
~Well Information Section
#MNEM     .UNIT     DATA                DESCRIPTION
#-----    -----     --------            --------------
 STRT     .M        30.0000             : START DEPTH
 STOP     .M        1900.0000           : END DEPTH
 STEP     .M        0.1500              : INCREMENT DEPTH
 NULL     .         -999.2500           : NULL VALUE
 COMP     .                              :
 WELL     .         F03-4               : WELL NAME
 EKB      .M        30.0000             : KELLY BUSHING ELEVATION
 EGL      .M        0.0000              : GROUND LEVEL ELEVATION
 EPD      .M        0.0000              : PERMANENT DATUM ELEVATION
 FLD      .                              :
 LOC      . X = 623256.0000 Y = 6082586.0000: WELL LOCATION
 PROV     .                              :
 SRVC     .                              :
 PROV     .                              :
 DATE     .                              :
 API      .                              :
#
~Curve Information Section
#MNEM     .UNIT               Curve #DESCRIPTION
#-----    -----               ----   --------------
 DEPTH    .M                  : 1     DEPTH
 RHOB     .kg/m3              : 2     Density
 DT       .us/m               : 3     Sonic
 GR       .API                : 4     Gamma Ray
 AI       .(m/s)*(kg/m3)      : 5     P-Impedance
 AI_rel   .(m/s)*(kg/m3)      : 6     P-Impedance_rel
 PHIE     .fraction           : 7     Porosity
~A (ASCII LOG DATA)
# ...
     1731.0001           2092.4731            500.1499             47.5135        4183700.2500          63276.7969              0.3484
     1731.1500           2090.8000            501.1191             47.9500        4172262.0000          60873.2461              0.3495
     1731.3000           2091.6401            500.6394             47.9500        4177954.7500          52319.5156              0.3490
     1731.4501           2094.8167            498.8215             47.5458        4199539.0000          47294.1250              0.3470
     1731.6001           2097.2251            497.4415             45.7751        4216035.0000          47294.1250              0.3454
     1731.7501           2100.6221            495.5449             44.3500        4239048.5000          47294.1250              0.3434
     1731.9000           2105.1990            492.9495             44.3500        4270621.5000          47294.1250              0.3405
     1732.0500           2106.0391            492.4463             44.3981        4276701.0000          47294.1250              0.3400
     1732.2001           2102.7524            494.3173             44.6500        4253857.0000          47294.1250              0.3420
     1732.3501           2100.1729            495.7564             44.6500        4236314.5000          47294.1250              0.3436
     1732.5001           2096.4077            497.9014             44.6500        4210490.5000          47294.1250              0.3459
     1732.6500           2094.3906            499.0758             44.6500        4196557.0000          47294.1250              0.3472
     1732.8000           2089.3181            501.9464             44.6500        4162440.2500          47294.1250              0.3504
     1732.9501           2086.0615            503.8052             44.6886        4140611.7500          47294.1250              0.3524
     1733.1001           2085.2998            504.2306             45.2500        4135613.0000          47294.1250              0.3529
     1733.2501           2081.3413            506.4810             45.2500        4109417.0000          47294.1250              0.3554
     1733.4000           2079.5234            507.4909             45.2353        4097659.2500          47294.1250              0.3565
     1733.5500           2074.8999            510.1122             44.3500        4067536.7500          47294.1250              0.3594
     1733.7001           2070.8000            512.4439             44.3500        4041027.7500          47294.1250              0.3620
     1733.8501           2067.9448            514.0835             44.3500        4022586.2500          47294.1250              0.3638
     1734.0001           2066.7380            514.7542             45.2214        4015000.5000          47294.1250              0.3645
     1734.1500           2064.5085            516.0447             45.8217        4000641.0000          47294.1250              0.3659
     1734.3000           2068.2397            513.9242             45.8500        4024413.2500          47294.1250              0.3636
     1734.4501           2071.1687            512.2437             45.9582        4043331.2500          47294.1250              0.3617
     1734.6001           2072.4856            511.5080             46.1326        4051717.7500          47294.1250              0.3610
     1734.7501           2071.5337            512.0366             46.1500        4045675.7500          47294.1250              0.3615
     1734.9000           2076.2012            509.3929             46.4119        4075859.0000          47294.1250              0.3586
     1735.0500           2081.7791            506.2452             47.4772        4112224.5000          47294.1250              0.3551
     1735.2001           2086.5505            503.5427             47.9022        4143763.2500          39575.9258              0.3522
     1735.3501           2089.1958            502.0196             47.9500        4161588.7500          32637.0918              0.3505
     1735.5001           2091.9456            500.4385             47.9500        4180235.0000          31469.7969              0.3487
     1735.6500           2093.4507            499.5921             47.7123        4190321.2500          31469.7969              0.3478
     1735.8000           2093.2344            499.7122             47.1843        4188880.0000          31469.7969              0.3479
     1735.9501           2092.2642            500.2931             45.6821        4182078.2500          31469.7969              0.3486
     1736.1001           2090.6599            501.1968             43.4632        4171339.2500          31469.7969              0.3496
     1736.2501           2087.6482            502.9092             42.6313        4151161.7500          31469.7969              0.3515
     1736.4000           2082.4961            505.8241             42.5500        4117088.7500          31469.7969              0.3547
     1736.5500           2077.5266            508.6375             42.3410        4084527.5000          31469.7969              0.3578
     1736.7001           2074.1274            510.5790             42.2500        4062317.7500          31469.7969              0.3599
     1736.8501           2071.2722            512.2186             42.4494        4043740.5000          31469.7969              0.3617
     1737.0001           2069.1328            513.4250             42.7445        4030063.7500          31469.7969              0.3630
     1737.1500           2069.9553            512.9332             42.8500        4035535.0000          31469.7969              0.3625
     1737.3000           2072.2783            511.6232             43.6571        4050408.5000          31469.7969              0.3611
     1737.4501           2075.3018            509.9116             45.7154        4069946.0000          31469.7969              0.3592
     1737.6001           2078.7446            507.9455             47.0461        4092477.7500          31469.7969              0.3570
     1737.7501           2083.4988            505.2509             47.2568        4123751.7500          31469.7969              0.3541
     1737.9000           2087.6562            502.8885             47.2568        4151347.0000          31469.7969              0.3515
     1738.0500           2093.0752            499.7966             46.5025        4187965.0000          31469.7969              0.3480
     1738.2001           2099.0476            496.4007             44.7564        4228577.5000          31469.7969              0.3443
     1738.3501           2102.5107            494.4515             43.7500        4252218.5000          31469.7969              0.3422
     1738.5001           2105.4116            492.8141             43.7500        4272247.0000          31469.7969              0.3404
     1738.6500           2111.6396            489.2758             43.6908        4316027.0000          31469.7969              0.3365
     1738.8000           2116.3262            486.6156             43.4080        4349072.5000          31469.7969              0.3336
     1738.9501           2113.9312            487.9696             43.1009        4332140.5000          31469.7969              0.3351
     1739.1001           2108.7942            490.8902             42.9584        4295927.0000          41131.1836              0.3383
     1739.2501           2101.8057            494.8526             42.8500        4247483.0000          66818.5078              0.3426
     1739.4000           2096.8354            497.6577             42.8500        4213410.0000          85068.6406              0.3457
     1739.5500           2098.2148            496.8794             43.3011        4222798.0000          85068.6406              0.3449
     1739.7001           2100.9814            495.3043             44.1132        4241816.0000          85068.6406              0.3431
     1739.8501           2104.3835            493.3735             44.3101        4265327.5000          85068.6406              0.3410
