~VERSION INFORMATION
 VERS.                          2.0   : CWLS LOG ASCII STANDARD - VERSION 2.0
 WRAP.                          NO    : ONE LINE PER DEPTH STEP
#
~Well Information Section
#MNEM     .UNIT     DATA                DESCRIPTION
#-----    -----     --------            --------------
 STRT     .M        30.0000             : START DEPTH
 STOP     .M        1900.0000           : END DEPTH
 STEP     .M        0.1500              : INCREMENT DEPTH
 NULL     .         -999.2500           : NULL VALUE
 COMP     .                              :
 WELL     .         F03-4               : WELL NAME
 EKB      .M        30.0000             : KELLY BUSHING ELEVATION
 EGL      .M        0.0000              : GROUND LEVEL ELEVATION
 EPD      .M        0.0000              : PERMANENT DATUM ELEVATION
 FLD      .                              :
 LOC      . X = 623256.0000 Y = 6082586.0000: WELL LOCATION
 PROV     .                              :
 SRVC     .                              :
 PROV     .                              :
 DATE     .                              :
 API      .                              :
#
~Curve Information Section
#MNEM     .UNIT               Curve #DESCRIPTION
#-----    -----               ----   --------------
 DEPTH    .M                  : 1     DEPTH
 RHOB     .kg/m3              : 2     Density
 DT       .us/m               : 3     Sonic
 GR       .API                : 4     Gamma Ray
 AI       .(m/s)*(kg/m3)      : 5     P-Impedance
 AI_rel   .(m/s)*(kg/m3)      : 6     P-Impedance_rel
 PHIE     .fraction           : 7     Porosity
~A (ASCII LOG DATA)
# ...
      759.0000           2186.8401            446.5565             60.4054        4897118.0000           8663.7949              0.2895
      759.1500           2186.5000            446.7605             59.0322        4894121.0000           7194.8862              0.2897
      759.3000           2185.7212            447.1928             57.6593        4887664.0000           7194.8862              0.2902
      759.4500           2183.8000            448.2592             56.2869        4871735.5000           7194.8862              0.2914
      759.6000           2183.8000            448.2592             54.9142        4871735.5000           7194.8862              0.2914
      759.7500           2183.8000            448.2592             53.8767        4871735.5000           7194.8862              0.2914
      759.9000           2183.8000            448.2592             53.8767        4871735.5000           7194.8862              0.2914
      760.0500           2183.8000            448.2592             53.8920        4871735.5000           7194.8862              0.2914
      760.2000           2182.6858            448.8926             55.3908        4862433.5000           7194.8862              0.2921
      760.3500           2177.9119            451.6096             61.4500        4822555.0000           7194.8862              0.2951
      760.5000           2177.4199            451.9046             61.4500        4818318.5000           7194.8862              0.2953
      760.6500           2176.3086            452.5450             61.3636        4809072.0000           7194.8862              0.2960
      760.8000           2172.3281            454.7823             60.8500        4776634.0000           7194.8862              0.2985
      760.9500           2173.6252            454.0533             60.8500        4787173.5000           7194.8862              0.2977
      761.1000           2177.0000            452.1565             60.8500        4814704.5000           7194.8862              0.2956
      761.2500           2175.1638            453.1980             60.4170        4799976.0000           7194.8862              0.2967
      761.4000           2153.9841            465.2143             55.2379        4630092.5000           7194.8862              0.3100
      761.5500           2152.2224            466.2412             52.1500        4616114.5000           7194.8862              0.3111
      761.7000           2150.6519            467.1077             51.9667        4604189.0000           7194.8862              0.3121
      761.8500           2149.1738            467.9749             46.4500        4592498.0000           7194.8862              0.3130
      762.0000           2147.5999            468.8415             46.4500        4580652.0000           7194.8862              0.3140
      762.1500           2146.5000            469.4767             45.8500        4572111.5000           7194.8862              0.3147
      762.3000           2149.9446            467.5098             45.8500        4598717.5000           7194.8862              0.3125
      762.4500           2151.1619            466.8332             45.8500        4607989.0000           7194.8862              0.3118
      762.6000           2153.9607            465.2266             45.8500        4629921.0000           7194.8862              0.3100
      762.7500           2154.0999            465.1466             46.4117        4631012.5000           7194.8862              0.3099
      762.9000           2154.0999            465.1466             50.0374        4631012.5000           7194.8862              0.3099
      763.0500           2165.2190            458.8235             57.6723        4719197.0000           7194.8862              0.3029
      763.2000           2168.5325            456.9681             59.7827        4745483.5000          -3647.2297              0.3010
      763.3500           2169.7595            456.2383             60.4734        4755760.0000         -35796.0078              0.3001
      763.5000           2170.4138            455.8681             62.5925        4761057.5000         -40305.0625              0.2997
      763.6500           2172.0122            454.9806             64.4598        4773861.0000         -40305.0625              0.2988
      763.8000           2174.1956            453.7227             65.2445        4791913.0000         -40305.0625              0.2974
      763.9500           2110.6633            489.8345             65.3500        4317341.5000         -40305.0625              0.3371
      764.1000           2095.5000            498.4543             65.3500        4203996.0000         -40305.0625              0.3466
      764.2500           2088.6699            502.3323             63.2544        4158046.7500         -40305.0625              0.3509
      764.4000           2114.7429            487.5034             62.6500        4339919.5000         -40305.0625              0.3345
      764.5500           2124.0466            482.2188             62.6500        4404737.5000         -40305.0625              0.3287
      764.7000           2130.6074            478.4958             62.6500        4452853.0000         -40305.0625              0.3246
      764.8500           2133.4272            476.9004             62.6500        4473528.5000         -40305.0625              0.3229
      765.0000           2142.1604            471.9363             62.6500        4539379.0000         -40305.0625              0.3174
      765.1500           2155.4912            464.3719             53.0588        4642145.5000         -40305.0625              0.3091
      765.3000           2160.3984            461.5944             48.5500        4680297.5000         -40305.0625              0.3060
      765.4500           2169.2229            456.5855             48.5500        4751372.0000         -40305.0625              0.3005
      765.6000           2179.5269            450.7237             47.2223        4835809.0000         -40305.0625              0.2941
      765.7500           2182.8000            448.8589             46.4500        4862998.0000         -40305.0625              0.2920
      765.9000           2182.8000            448.8589             46.4500        4862998.0000         -40305.0625              0.2920
      766.0500           2182.8000            448.8589             46.4500        4862998.0000         -40305.0625              0.2920
      766.2000           2182.8000            448.8589             46.4500        4862998.0000         -40305.0625              0.2920
      766.3500           2182.8000            448.8589             46.4500        4862998.0000         -40305.0625              0.2920
      766.5000           2182.8000            448.8589             46.4500        4862998.0000         -40305.0625              0.2920
      766.6500           2182.8000            448.8589             46.4500        4862998.0000         -40305.0625              0.2920
      766.8000           2182.8000            448.8589             47.2061        4862998.0000         -40305.0625              0.2920
      766.9500           2182.8000            448.8589             48.0965        4862998.0000         -40305.0625              0.2920
      767.1000           2182.8000            448.8589             49.2419        4862998.0000         -40305.0625              0.2920
      767.2500           2182.8000            448.8589             50.3500        4862998.0000         -40305.0625              0.2920
      767.4000           2179.0583            450.9702             50.3500        4832118.5000         -40305.0625              0.2943
      767.5500           2174.3000            453.6551             50.3500        4792848.0000          -2681.4326              0.2973
      767.7000           2174.3816            453.6245             50.2275        4793351.5000          56002.6484              0.2973
      767.8500           2174.5391            453.5561             49.6970        4794421.0000          67080.1250              0.2972
