~VERSION INFORMATION
 VERS.                          2.0   : CWLS LOG ASCII STANDARD - VERSION 2.0
 WRAP.                          NO    : ONE LINE PER DEPTH STEP
#
~Well Information Section
#MNEM     .UNIT     DATA                DESCRIPTION
#-----    -----     --------            --------------
 STRT     .M        28.6400             : START DEPTH
 STOP     .M        1700.0000           : END DEPTH
 STEP     .M        0.1500              : INCREMENT DEPTH
 NULL     .         -999.2500           : NULL VALUE
 COMP     .                              :
 WELL     .         F06-1               : WELL NAME
 EKB      .M        28.6400             : KELLY BUSHING ELEVATION
 EGL      .M        0.0000              : GROUND LEVEL ELEVATION
 EPD      .M        0.0000              : PERMANENT DATUM ELEVATION
 FLD      .                              :
 LOC      . X = 607903.0000 Y = 6077213.0000: WELL LOCATION
 PROV     .                              :
 SRVC     .                              :
 PROV     .                              :
 DATE     .                              :
 API      .                              :
#
~Curve Information Section
#MNEM     .UNIT               Curve #DESCRIPTION
#-----    -----               ----   --------------
 DEPTH    .M                  : 1     DEPTH
 RHOB     .kg/m3              : 2     Density
 DT       .us/m               : 3     Sonic
 GR       .API                : 4     Gamma Ray
 AI       .(m/s)*(kg/m3)      : 5     P-Impedance
 AI_rel   .(m/s)*(kg/m3)      : 6     P-Impedance_rel
 PHIE     .fraction           : 7     Porosity
~A (ASCII LOG DATA)
# ...
  472.6400       2087.3000        503.0819         35.0357      4149026.0000      -2003.2551          0.3517
  472.7900       2087.3000        503.0745         32.7828      4149087.2500      -2003.2551          0.3517
  472.9400       2087.3286        503.0671         32.2725      4149204.5000      -2003.2551          0.3517
  473.0900       2087.3999        503.0600         32.6280      4149405.7500      -2003.2551          0.3517
  473.2400       2087.3999        503.0525         33.7942      4149467.2500      -2003.2551          0.3516
  473.3900       2087.3999        503.0451         33.0943      4149528.0000      -2003.2551          0.3516
  473.5400       2087.3999        503.0377         34.2134      4149589.7500      -2003.2551          0.3516
  473.6900       2087.3999        503.0302         33.5801      4149651.2500      -2003.2551          0.3516
  473.8400       2087.3999        503.0228         34.3986      4149712.2500      -2003.2551          0.3516
  473.9900       2087.4172        503.0155         32.5741      4149807.2500      -2003.2551          0.3516
  474.1400       2087.5000        503.0083         31.6112      4150030.7500      -2003.2551          0.3516
  474.2900       2087.5000        503.0009         30.6483      4150092.0000      -2003.2551          0.3516
  474.4400       2087.5000        502.9935         29.6855      4150153.2500      -2003.2551          0.3516
  474.5900       2087.5000        502.9860         28.7224      4150215.0000      -2003.2551          0.3516
  474.7400       2087.5000        502.9786         27.9521      4150275.5000      -2003.2551          0.3516
  474.8900       2087.5000        502.9712         29.1049      4150336.7500      -2003.2551          0.3516
  475.0400       2087.5000        502.9638         31.2714      4150398.5000      -2003.2551          0.3515
  475.1900       2087.5046        502.9567         33.4448      4150465.7500      -2003.2551          0.3515
  475.3400       2087.6001        502.9493         35.6503      4150717.0000      -2003.2551          0.3515
  475.4900       2087.6001        502.9419         34.2071      4150778.2500      -2003.2551          0.3515
  475.6400       2087.6001        502.9344         36.3015      4150839.5000      -2003.2551          0.3515
  475.7900       2087.6001        502.9269         34.4867      4150901.7500      -2003.2551          0.3515
  475.9400       2087.6001        502.9194         31.5054      4150963.5000      -2003.2551          0.3515
  476.0900       2087.6001        502.9120         29.6925      4151024.2500      -2003.2551          0.3515
  476.2400       2087.6001        502.9046         30.7815      4151085.7500      -1720.3323          0.3515
  476.3900       2087.6001        502.8974         31.4088      4151144.7500      -1028.4995          0.3515
  476.5400       2087.6917        502.8900         30.8928      4151388.2500       -980.2621          0.3515
  476.6900       2087.7000        502.8826         31.6627      4151465.7500       -980.2621          0.3515
  476.8400       2087.7000        502.8752         30.9471      4151527.0000       -980.2621          0.3514
  476.9900       2087.7000        502.8678         30.0516      4151588.0000       -980.2621          0.3514
  477.1400       2087.7000        502.8604         30.1918      4151649.2500       -980.2621          0.3514
  477.2900       2087.7000        502.8529         29.9822      4151710.7500       -980.2621          0.3514
  477.4400       2087.7000        502.8458         30.1820      4151769.7500       -980.2621          0.3514
  477.5900       2087.7805        502.8384         29.5035      4151990.7500       -980.2621          0.3514
  477.7400       2087.8000        502.8310         26.2141      4152091.0000       -980.2621          0.3514
  477.8900       2087.8000        502.8236         23.7417      4152152.0000       -980.2621          0.3514
  478.0400       2087.8000        502.8161         23.7205      4152213.5000       -980.2621          0.3514
  478.1900       2087.8000        502.8087         26.1160      4152275.2500       -980.2621          0.3514
  478.3400       2087.8000        502.8015         28.0002      4152334.7500       -980.2621          0.3514
  478.4900       2087.8000        502.7942         27.9862      4152395.0000       -980.2621          0.3514
  478.6400       2087.8000        502.7868         30.1231      4152456.2500       -980.2621          0.3513
  478.7900       2087.8677        502.7794         27.0366      4152652.0000       -980.2621          0.3513
  478.9400       2087.8999        502.7719         26.8859      4152777.7500       -980.2621          0.3513
  479.0900       2087.8999        502.7645         29.1802      4152838.7500       -980.2621          0.3513
  479.2400       2087.8999        502.7571         31.0783      4152900.2500       -980.2621          0.3513
  479.3900       2087.8999        502.7496         31.9386      4152961.7500       -980.2621          0.3513
  479.5400       2087.8999        502.7424         32.2369      4153021.5000       -980.2621          0.3513
  479.6900       2087.8999        502.7351         32.4477      4153081.7500       -980.2621          0.3513
  479.8400       2087.9565        502.7277         30.0244      4153255.7500       -980.2621          0.3513
  479.9900       2088.0000        502.7202         28.7800      4153403.5000       -980.2621          0.3513
  480.1400       2088.0000        502.7128         29.9735      4153464.5000       -811.3139          0.3513
  480.2900       2088.0000        502.7054         30.8533      4153526.0000         35.8831          0.3513
  480.4400       2088.0000        502.6980         29.6256      4153587.2500        688.2977          0.3512
  480.5900       2088.0000        502.6907         27.0829      4153647.5000        688.2977          0.3512
  480.7400       2088.0000        502.6834         25.2784      4153707.5000        688.2977          0.3512
  480.8900       2088.0000        502.6760         24.1990      4153768.7500        688.2977          0.3512
  481.0400       2088.0437        502.6686         24.1329      4153917.0000        688.2977          0.3512
  481.1900       2088.0999        502.6612         24.8575      4154090.0000        688.2977          0.3512
  481.3400       2088.0999        502.6538         25.5069      4154151.2500        688.2977          0.3512
  481.4900       2088.0999        502.6464         27.2225      4154212.7500        688.2977          0.3512
  481.6400       2088.0999        502.6391         30.3089      4154273.0000        688.2977          0.3512
  481.7900       2088.0999        502.6318         31.1240      4154332.5000        688.2977          0.3512
  481.9400       2088.0999        502.6244         30.6429      4154394.0000        688.2977          0.3512
  482.0900       2088.1326        502.6170         29.7570      4154520.7500        688.2977          0.3512
  482.2400       2088.2002        502.6096         27.5742      4154716.5000        688.2977          0.3512
  482.3900       2088.2002        502.6021         28.1945      4154778.0000        688.2977          0.3511
  482.5400       2088.2002        502.5947         29.1582      4154839.5000        688.2977          0.3511
  482.6900       2088.2002        502.5873         29.0370      4154900.0000        688.2977          0.3511
  482.8400       2088.2002        502.5801         29.8584      4154959.7500        688.2977          0.3511
  482.9900       2088.2002        502.5727         29.4208      4155021.2500        688.2977          0.3511
  483.1400       2088.2002        502.5653         29.0043      4155082.5000        688.2977          0.3511
  483.2900       2088.2200        502.5579         29.9094      4155183.0000        688.2977          0.3511
  483.4400       2088.3000        502.5505         29.6563      4155403.5000        688.2977          0.3511
  483.5900       2088.3000        502.5431         30.3425      4155465.0000        688.2977          0.3511
