~VERSION INFORMATION
 VERS.                          2.0   : CWLS LOG ASCII STANDARD - VERSION 2.0
 WRAP.                          NO    : ONE LINE PER DEPTH STEP
#
~Well Information Section
#MNEM     .UNIT     DATA                DESCRIPTION
#-----    -----     --------            --------------
 STRT     .M        28.6400             : START DEPTH
 STOP     .M        1700.0000           : END DEPTH
 STEP     .M        0.1500              : INCREMENT DEPTH
 NULL     .         -999.2500           : NULL VALUE
 COMP     .                              :
 WELL     .         F06-1               : WELL NAME
 EKB      .M        28.6400             : KELLY BUSHING ELEVATION
 EGL      .M        0.0000              : GROUND LEVEL ELEVATION
 EPD      .M        0.0000              : PERMANENT DATUM ELEVATION
 FLD      .                              :
 LOC      . X = 607903.0000 Y = 6077213.0000: WELL LOCATION
 PROV     .                              :
 SRVC     .                              :
 PROV     .                              :
 DATE     .                              :
 API      .                              :
#
~Curve Information Section
#MNEM     .UNIT               Curve #DESCRIPTION
#-----    -----               ----   --------------
 DEPTH    .M                  : 1     DEPTH
 RHOB     .kg/m3              : 2     Density
 DT       .us/m               : 3     Sonic
 GR       .API                : 4     Gamma Ray
 AI       .(m/s)*(kg/m3)      : 5     P-Impedance
 AI_rel   .(m/s)*(kg/m3)      : 6     P-Impedance_rel
 PHIE     .fraction           : 7     Porosity
~A (ASCII LOG DATA)
# ...
  250.6400       2068.1001        514.0071         20.5316      4023485.7500      -1631.2449          0.3637
  250.7900       2068.1001        513.9996         20.1596      4023544.0000      -1631.2449          0.3637
  250.9400       2068.1001        513.9924         19.9251      4023600.2500      -1631.2449          0.3637
  251.0900       2068.1001        513.9851         19.9251      4023657.5000      -1631.2449          0.3637
  251.2400       2068.1001        513.9777         19.5822      4023716.0000      -1631.2449          0.3637
  251.3900       2068.1550        513.9702         19.3186      4023881.2500      -1631.2449          0.3636
  251.5400       2068.2002        513.9628         19.3186      4024026.7500      -1631.2449          0.3636
  251.6900       2068.2002        513.9554         19.3186      4024085.0000      -1631.2449          0.3636
  251.8400       2068.2002        513.9480         19.0145      4024142.7500      -1631.2449          0.3636
  251.9900       2068.2002        513.9406         18.2704      4024200.7500      -1729.3485          0.3636
  252.1400       2068.2002        513.9333         17.6599      4024258.0000      -1884.9330          0.3636
  252.2900       2068.2002        513.9260         17.0865      4024315.0000      -1943.2063          0.3636
  252.4400       2068.2439        513.9186         16.5892      4024458.0000      -1943.2063          0.3636
  252.5900       2068.3000        513.9112         17.1004      4024625.5000      -1943.2063          0.3636
  252.7400       2068.3000        513.9037         18.4169      4024683.7500      -1943.2063          0.3636
  252.8900       2068.3000        513.8964         19.6729      4024741.7500      -1943.2063          0.3636
  253.0400       2068.3000        513.8890         21.7007      4024798.7500      -1943.2063          0.3636
  253.1900       2068.3000        513.8818         24.2792      4024855.5000      -1943.2063          0.3636
  253.3400       2068.3000        513.8744         24.7847      4024914.0000      -1943.2063          0.3635
  253.4900       2068.3000        513.8669         23.8048      4024971.7500      -1943.2063          0.3635
  253.6400       2068.3311        513.8596         19.3117      4025089.7500      -1943.2063          0.3635
  253.7900       2068.3999        513.8522         16.2333      4025282.0000      -1943.2063          0.3635
  253.9400       2068.3999        513.8447         15.6284      4025340.5000      -1943.2063          0.3635
  254.0900       2068.3999        513.8373         18.1886      4025398.5000      -1943.2063          0.3635
  254.2400       2068.3999        513.8302         23.5643      4025454.2500      -1943.2063          0.3635
  254.3900       2068.3999        513.8228         22.1731      4025512.5000      -1943.2063          0.3635
  254.5400       2068.3999        513.8154         17.3048      4025570.7500      -1943.2063          0.3635
  254.6900       2068.4197        513.8079         16.5892      4025667.5000      -1943.2063          0.3635
  254.8400       2068.5000        513.8005         16.9192      4025882.0000      -1943.2063          0.3635
  254.9900       2068.5000        513.7930         18.7098      4025939.7500      -1943.2063          0.3635
  255.1400       2068.5000        513.7856         20.9534      4025998.2500      -1943.2063          0.3635
  255.2900       2068.5000        513.7782         24.9997      4026056.2500      -1943.2063          0.3634
  255.4400       2068.5000        513.7711         24.2605      4026112.2500      -1943.2063          0.3634
  255.5900       2068.5000        513.7636         22.5315      4026170.5000      -1943.2063          0.3634
  255.7400       2068.5000        513.7562         21.4414      4026229.0000      -1944.2980          0.3634
  255.8900       2068.5068        513.7488         22.1156      4026300.0000      -1963.4132          0.3634
  256.0400       2068.5999        513.7413         31.0490      4026539.7500      -2062.7407          0.3634
  256.1900       2068.5999        513.7339         29.4059      4026597.7500      -2062.7407          0.3634
  256.3400       2068.5999        513.7269         31.4298      4026652.7500      -2062.7407          0.3634
  256.4900       2068.5999        513.7194         30.4978      4026711.2500      -2062.7407          0.3634
  256.6400       2068.5999        513.7120         22.9578      4026769.7500      -2062.7407          0.3634
  256.7900       2068.5999        513.7045         17.5568      4026828.2500      -2062.7407          0.3634
  256.9400       2068.5999        513.6970         16.9086      4026887.0000      -2062.7407          0.3634
  257.0900       2068.6958        513.6896         17.7633      4027132.2500      -2062.7407          0.3633
  257.2400       2068.7002        513.6822         18.9442      4027198.5000      -2062.7407          0.3633
  257.3900       2068.7002        513.6747         20.9801      4027256.7500      -2062.7407          0.3633
  257.5400       2068.7002        513.6677         23.0688      4027312.5000      -2062.7407          0.3633
  257.6900       2068.7002        513.6602         26.7832      4027371.0000      -2062.7407          0.3633
  257.8400       2068.7002        513.6528         26.4053      4027428.7500      -2062.7407          0.3633
  257.9900       2068.7002        513.6454         26.4070      4027487.0000      -2062.7407          0.3633
  258.1400       2068.7002        513.6379         26.5704      4027545.5000      -2062.7407          0.3633
  258.2900       2068.7830        513.6306         27.3517      4027764.5000      -2062.7407          0.3633
  258.4400       2068.8000        513.6230         26.7667      4027856.5000      -2062.7407          0.3633
  258.5900       2068.8000        513.6160         25.8716      4027912.5000      -2062.7407          0.3633
  258.7400       2068.8000        513.6086         23.5546      4027970.2500      -2062.7407          0.3633
  258.8900       2068.8000        513.6012         19.0116      4028028.0000      -2062.7407          0.3632
  259.0400       2068.8000        513.5938         17.3477      4028086.5000      -2062.7407          0.3632
  259.1900       2068.8000        513.5864         18.0855      4028144.5000      -2062.7407          0.3632
  259.3400       2068.8000        513.5789         19.9317      4028203.0000      -2062.7407          0.3632
  259.4900       2068.8704        513.5715         20.9571      4028398.0000      -2062.7407          0.3632
  259.6400       2068.9001        513.5643         22.8012      4028512.7500      -2062.7407          0.3632
  259.7900       2068.9001        513.5570         24.4154      4028569.7500      -2082.0806          0.3632
  259.9400       2068.9001        513.5496         24.4014      4028628.0000      -2106.6670          0.3632
  260.0900       2068.9001        513.5421         24.7507      4028686.5000      -2114.6453          0.3632
  260.2400       2068.9001        513.5347         24.8922      4028744.7500      -2114.6453          0.3632
  260.3900       2068.9001        513.5273         26.2464      4028803.0000      -2114.6453          0.3632
  260.5400       2068.9590        513.5198         27.0247      4028976.0000      -2114.6453          0.3632
  260.6900       2069.0000        513.5126         25.8569      4029112.5000      -2114.6453          0.3631
  260.8400       2069.0000        513.5053         24.9116      4029169.7500      -2114.6453          0.3631
  260.9900       2069.0000        513.4979         24.9415      4029228.0000      -2114.6453          0.3631
  261.1400       2069.0000        513.4905         25.5587      4029286.2500      -2114.6453          0.3631
  261.2900       2069.0000        513.4830         27.4228      4029344.5000      -2114.6453          0.3631
  261.4400       2069.0000        513.4756         29.3599      4029402.7500      -2114.6453          0.3631
  261.5900       2069.0000        513.4682         29.6434      4029461.0000      -2114.6453          0.3631
