~VERSION INFORMATION
 VERS.                          2.0   : CWLS LOG ASCII STANDARD - VERSION 2.0
 WRAP.                          NO    : ONE LINE PER DEPTH STEP
#
~Well Information Section
#MNEM     .UNIT     DATA                DESCRIPTION
#-----    -----     --------            --------------
 STRT     .M        28.6400             : START DEPTH
 STOP     .M        1700.0000           : END DEPTH
 STEP     .M        0.1500              : INCREMENT DEPTH
 NULL     .         -999.2500           : NULL VALUE
 COMP     .                              :
 WELL     .         F06-1               : WELL NAME
 EKB      .M        28.6400             : KELLY BUSHING ELEVATION
 EGL      .M        0.0000              : GROUND LEVEL ELEVATION
 EPD      .M        0.0000              : PERMANENT DATUM ELEVATION
 FLD      .                              :
 LOC      . X = 607903.0000 Y = 6077213.0000: WELL LOCATION
 PROV     .                              :
 SRVC     .                              :
 PROV     .                              :
 DATE     .                              :
 API      .                              :
#
~Curve Information Section
#MNEM     .UNIT               Curve #DESCRIPTION
#-----    -----               ----   --------------
 DEPTH    .M                  : 1     DEPTH
 RHOB     .kg/m3              : 2     Density
 DT       .us/m               : 3     Sonic
 GR       .API                : 4     Gamma Ray
 AI       .(m/s)*(kg/m3)      : 5     P-Impedance
 AI_rel   .(m/s)*(kg/m3)      : 6     P-Impedance_rel
 PHIE     .fraction           : 7     Porosity
~A (ASCII LOG DATA)
# ...
 1364.8401       2117.0508        486.1837         58.2125      4355624.5000      155519.2188          0.3331
 1364.9901       2114.0623        487.8823         57.8169      4333790.0000      131377.6562          0.3349
 1365.1400       2105.2847        492.8885         56.5631      4271343.0000      118568.3516          0.3405
 1365.2900       2101.2153        495.2119         51.8073      4243103.5000      118568.3516          0.3430
 1365.4401       2117.6873        485.8339         47.2360      4360810.5000      118568.3516          0.3327
 1365.5901       2128.4497        479.7221         44.6255      4436863.5000      118568.3516          0.3260
 1365.7401       2137.2705        474.7212         43.1479      4502907.0000      118568.3516          0.3205
 1365.8900       2147.8911        468.6854         42.2532      4582848.5000      118568.3516          0.3138
 1366.0400       2148.1604        468.5175         43.0316      4585044.5000      118568.3516          0.3137
 1366.1901       2131.2703        478.1028         44.8057      4459731.0000      118568.3516          0.3242
 1366.3401       2112.0562        489.0224         45.9246      4319109.5000      118568.3516          0.3362
 1366.4901       2106.3013        492.2929         45.7333      4278563.5000      118568.3516          0.3398
 1366.6400       2107.7778        491.4669         43.9702      4288814.5000      118568.3516          0.3389
 1366.7900       2110.8999        489.7080         43.1516      4310527.5000      118568.3516          0.3370
 1366.9401       2108.9238        490.8311         46.5872      4296680.0000      118568.3516          0.3382
 1367.0901       2105.3474        492.8636         51.6141      4271674.0000      118568.3516          0.3404
 1367.2401       2106.7454        492.0691         53.3962      4281493.5000      118568.3516          0.3396
 1367.3900       2114.4136        487.7110         52.0999      4335547.5000      118568.3516          0.3348
 1367.5400       2128.5029        479.7040         49.5694      4438191.5000      118568.3516          0.3259
 1367.6901       2145.8989        469.8077         47.9778      4567748.0000      118568.3516          0.3151
 1367.8401       2149.5654        467.7054         45.0204      4596025.5000      118568.3516          0.3128
 1367.9901       2143.5730        471.1110         44.8757      4550206.5000      118568.3516          0.3165
 1368.1400       2131.4246        478.0237         44.1543      4459526.5000      118568.3516          0.3241
 1368.2900       2111.8882        489.1462         43.3307      4318208.5000      118568.3516          0.3363
 1368.4401       2097.3965        497.3745         43.5332      4216938.5000      118568.3516          0.3454
 1368.5901       2101.7034        494.9060         43.7782      4246960.0000      118568.3516          0.3427
 1368.7401       2114.7417        487.4962         46.8852      4338165.5000      118568.3516          0.3345
 1368.8900       2125.8035        481.2159         53.0012      4417728.0000      118568.3516          0.3276
 1369.0400       2133.6528        476.7714         59.2293      4475214.0000      98183.6562          0.3227
 1369.1901       2130.9558        478.2816         61.4830      4455555.0000      18643.9570          0.3244
 1369.3401       2120.5051        484.2257         61.8517      4379523.5000      14790.3516          0.3309
 1369.4901       2104.8479        493.1475         61.8517      4268280.5000      14790.3516          0.3407
 1369.6400       2096.7883        497.7208         61.7228      4212784.5000      14790.3516          0.3458
 1369.7900       2094.5991        498.9296         60.7709      4198191.5000      14790.3516          0.3471
 1369.9401       2092.7527        500.0211         59.4773      4185332.5000      14790.3516          0.3483
 1370.0901       2094.8000        498.8576         58.3269      4199194.0000      14790.3516          0.3470
 1370.2401       2094.4407        499.0618         54.9571      4196767.5000      14790.3516          0.3472
 1370.3900       2089.5647        501.8311         54.1184      4163927.2500      14790.3516          0.3503
 1370.5400       2079.6951        507.4132         54.1184      4098623.7500      14790.3516          0.3565
 1370.6901       2077.4668        508.6804         54.1184      4084032.2500      14790.3516          0.3578
 1370.8401       2076.3684        509.3324         54.1436      4076647.7500      14790.3516          0.3585
 1370.9901       2074.1001        510.6217         55.9380      4061911.2500      14790.3516          0.3600
 1371.1400       2077.4944        508.6639         56.3922      4084218.5000      14790.3516          0.3578
 1371.2900       2083.1914        505.4542         59.0712      4121429.7500      14790.3516          0.3543
 1371.4401       2086.5837        503.4994         59.1223      4144166.5000      14790.3516          0.3522
 1371.5901       2090.0234        501.5707         56.5306      4166961.0000      14790.3516          0.3500
 1371.7401       2097.6729        497.1984         53.8434      4219016.0000      14790.3516          0.3452
 1371.8900       2100.3108        495.6974         51.9936      4237086.0000      14790.3516          0.3435
 1372.0400       2101.5818        495.0006         51.4338      4245615.0000      14790.3516          0.3428
 1372.1901       2100.6377        495.5149         51.3890      4239303.5000      14790.3516          0.3433
 1372.3401       2098.4995        496.7267         51.7847      4224660.5000      14790.3516          0.3447
 1372.4901       2098.2002        496.8969         49.9025      4222606.5000      14790.3516          0.3449
 1372.6400       2098.2002        496.8969         50.7129      4222606.5000      14790.3516          0.3449
 1372.7900       2105.7605        492.6003         52.0556      4274884.5000      14790.3516          0.3401
 1372.9401       2107.3999        491.6686         51.9324      4286220.0000      14790.3516          0.3391
 1373.0901       2107.3999        491.6686         50.4063      4286220.0000      -30648.3652          0.3391
 1373.2401       2106.5488        492.1743         50.0243      4280088.0000      -63966.4688          0.3396
 1373.3900       2102.8125        494.3041         46.4077      4254117.5000      -70176.8281          0.3420
 1373.5400       2099.9951        495.9052         44.7436      4234678.0000      -70176.8281          0.3437
 1373.6901       2098.5293        496.7177         44.8957      4224794.5000      -70176.8281          0.3447
 1373.8401       2092.5239        500.1429         40.1790      4183954.7500      -70176.8281          0.3484
 1373.9901       2089.3672        501.9254         36.9340      4162706.7500      -70176.8281          0.3504
 1374.1400       2094.4880        499.0258         37.6101      4197263.5000      -70176.8281          0.3472
 1374.2900       2104.7073        493.2273         40.6043      4267452.0000      -70176.8281          0.3408
 1374.4401       2114.5437        487.6371         43.8933      4336465.5000      -70176.8281          0.3347
 1374.5901       2114.9031        487.4328         45.3069      4338901.5000      -70176.8281          0.3344
 1374.7401       2109.3911        490.5473         45.4753      4300150.0000      -70176.8281          0.3379
 1374.8900       2098.9907        496.4473         45.6248      4228362.5000      -70176.8281          0.3444
 1375.0400       2094.9382        498.7507         45.3153      4200381.0000      -70176.8281          0.3469
 1375.1901       2101.1025        495.2474         45.2776      4242695.0000      -70176.8281          0.3431
 1375.3401       2107.6301        491.5378         46.9766      4287871.0000      -70176.8281          0.3390
 1375.4901       2112.1553        488.9660         46.7478      4319679.5000      -70176.8281          0.3362
 1375.6400       2119.6863        484.7007         44.0617      4373411.5000      -70176.8281          0.3314
