~VERSION INFORMATION
 VERS.                          2.0   : CWLS LOG ASCII STANDARD - VERSION 2.0
 WRAP.                          NO    : ONE LINE PER DEPTH STEP
#
~Well Information Section
#MNEM     .UNIT     DATA                DESCRIPTION
#-----    -----     --------            --------------
 STRT     .M        28.6400             : START DEPTH
 STOP     .M        1700.0000           : END DEPTH
 STEP     .M        0.1500              : INCREMENT DEPTH
 NULL     .         -999.2500           : NULL VALUE
 COMP     .                              :
 WELL     .         F06-1               : WELL NAME
 EKB      .M        28.6400             : KELLY BUSHING ELEVATION
 EGL      .M        0.0000              : GROUND LEVEL ELEVATION
 EPD      .M        0.0000              : PERMANENT DATUM ELEVATION
 FLD      .                              :
 LOC      . X = 607903.0000 Y = 6077213.0000: WELL LOCATION
 PROV     .                              :
 SRVC     .                              :
 PROV     .                              :
 DATE     .                              :
 API      .                              :
#
~Curve Information Section
#MNEM     .UNIT               Curve #DESCRIPTION
#-----    -----               ----   --------------
 DEPTH    .M                  : 1     DEPTH
 RHOB     .kg/m3              : 2     Density
 DT       .us/m               : 3     Sonic
 GR       .API                : 4     Gamma Ray
 AI       .(m/s)*(kg/m3)      : 5     P-Impedance
 AI_rel   .(m/s)*(kg/m3)      : 6     P-Impedance_rel
 PHIE     .fraction           : 7     Porosity
~A (ASCII LOG DATA)
# ...
  361.6400       2077.7000        508.5444         38.1043      4085582.2500      -1653.5010          0.3577
  361.7900       2077.7000        508.5370         37.5356      4085642.0000      -1713.6581          0.3577
  361.9400       2077.7000        508.5299         34.6355      4085698.5000      -1715.5758          0.3577
  362.0900       2077.7000        508.5225         32.2177      4085758.5000      -1715.5758          0.3577
  362.2400       2077.7917        508.5150         31.7775      4085998.7500      -1715.5758          0.3576
  362.3900       2077.8000        508.5076         32.5727      4086074.2500      -1715.5758          0.3576
  362.5400       2077.8000        508.5002         31.3197      4086134.0000      -1715.5758          0.3576
  362.6900       2077.8000        508.4928         28.5094      4086193.7500      -1715.5758          0.3576
  362.8400       2077.8000        508.4853         30.7012      4086253.7500      -1715.5758          0.3576
  362.9900       2077.8000        508.4779         33.4317      4086313.5000      -1715.5758          0.3576
  363.1400       2077.8000        508.4708         37.1135      4086370.5000      -1715.5758          0.3576
  363.2900       2077.8804        508.4634         36.1079      4086588.0000      -1715.5758          0.3576
  363.4400       2077.8999        508.4560         32.1039      4086685.7500      -1715.5758          0.3576
  363.5900       2077.8999        508.4485         32.5533      4086745.7500      -1715.5758          0.3576
  363.7400       2077.8999        508.4411         34.1142      4086805.2500      -1715.5758          0.3576
  363.8900       2077.8999        508.4337         38.5291      4086864.7500      -1715.5758          0.3576
  364.0400       2077.8999        508.4263         39.2808      4086924.7500      -1715.5758          0.3576
  364.1900       2077.8999        508.4191         39.8915      4086982.7500      -1715.5758          0.3575
  364.3400       2077.8999        508.4117         36.0379      4087041.7500      -1715.5758          0.3575
  364.4900       2077.9678        508.4043         29.0419      4087234.5000      -1715.5758          0.3575
  364.6400       2078.0000        508.3969         24.5910      4087357.2500      -1715.5758          0.3575
  364.7900       2078.0000        508.3895         23.5643      4087417.5000      -1715.5758          0.3575
  364.9400       2078.0000        508.3820         23.7210      4087477.2500      -1715.5758          0.3575
  365.0900       2078.0000        508.3746         24.0831      4087536.7500      -1715.5758          0.3575
  365.2400       2078.0000        508.3674         25.9104      4087595.0000      -1715.5758          0.3575
  365.3900       2078.0000        508.3601         28.3639      4087653.5000      -1721.5033          0.3575
  365.5400       2078.0564        508.3527         28.8120      4087824.2500      -1826.4138          0.3575
  365.6900       2078.0999        508.3453         24.4183      4087969.2500      -1903.7712          0.3575
  365.8400       2078.0999        508.3379         19.5207      4088028.7500      -1903.7712          0.3575
  365.9900       2078.0999        508.3304         17.7917      4088088.5000      -1903.7712          0.3574
  366.1400       2078.0999        508.3230         18.1074      4088148.5000      -1903.7712          0.3574
  366.2900       2078.0999        508.3157         19.1537      4088207.2500      -1903.7712          0.3574
  366.4400       2078.0999        508.3084         19.3371      4088265.5000      -1903.7712          0.3574
  366.5900       2078.0999        508.3010         19.4278      4088325.2500      -1903.7712          0.3574
  366.7400       2078.1438        508.2936         21.3843      4088471.2500      -1903.7712          0.3574
  366.8900       2078.2002        508.2862         25.0500      4088641.7500      -1903.7712          0.3574
  367.0400       2078.2002        508.2787         27.6297      4088701.7500      -1903.7712          0.3574
  367.1900       2078.2002        508.2713         27.2195      4088761.5000      -1903.7712          0.3574
  367.3400       2078.2002        508.2639         24.9346      4088821.0000      -1903.7712          0.3574
  367.4900       2078.2002        508.2566         22.0040      4088880.0000      -1903.7712          0.3574
  367.6400       2078.2002        508.2494         20.2137      4088938.0000      -1903.7712          0.3574
  367.7900       2078.2002        508.2419         19.2126      4088997.5000      -1903.7712          0.3574
  367.9400       2078.2312        508.2345         20.1849      4089118.2500      -1903.7712          0.3573
  368.0900       2078.3000        508.2271         21.8865      4089313.5000      -1903.7712          0.3573
  368.2400       2078.3000        508.2197         23.2944      4089373.0000      -1903.7712          0.3573
  368.3900       2078.3000        508.2123         24.7258      4089432.2500      -1903.7712          0.3573
  368.5400       2078.3000        508.2052         26.2937      4089490.0000      -1903.7712          0.3573
  368.6900       2078.3000        508.1978         26.1546      4089549.7500      -1903.7712          0.3573
  368.8400       2078.3000        508.1903         25.6872      4089609.5000      -1903.7712          0.3573
  368.9900       2078.3198        508.1829         25.8669      4089708.0000      -1903.7712          0.3573
  369.1400       2078.3999        508.1754         26.4869      4089925.7500      -1903.7712          0.3573
  369.2900       2078.3999        508.1680         25.9402      4089985.7500      -1899.8170          0.3573
  369.4400       2078.3999        508.1607         25.6419      4090045.0000      -1868.0950          0.3573
  369.5900       2078.3999        508.1535         25.5053      4090102.5000      -1801.0452          0.3573
  369.7400       2078.3999        508.1461         26.7565      4090162.2500      -1801.0452          0.3572
  369.8900       2078.3999        508.1387         30.3901      4090222.0000      -1801.0452          0.3572
  370.0400       2078.3999        508.1312         31.8351      4090282.0000      -1801.0452          0.3572
  370.1900       2078.4067        508.1238         32.8409      4090355.0000      -1801.0452          0.3572
  370.3400       2078.5000        508.1164         34.4657      4090598.2500      -1801.0452          0.3572
  370.4900       2078.5000        508.1090         34.0991      4090658.0000      -1801.0452          0.3572
  370.6400       2078.5000        508.1015         31.9975      4090717.7500      -1801.0452          0.3572
  370.7900       2078.5000        508.0945         29.3071      4090775.0000      -1801.0452          0.3572
  370.9400       2078.5000        508.0869         25.6872      4090835.5000      -1801.0452          0.3572
  371.0900       2078.5000        508.0795         22.6866      4090895.5000      -1801.0452          0.3572
  371.2400       2078.5000        508.0721         22.9498      4090955.2500      -1801.0452          0.3572
  371.3900       2078.5957        508.0646         25.5711      4091203.0000      -1801.0452          0.3572
  371.5400       2078.5999        508.0572         27.1147      4091271.7500      -1801.0452          0.3571
  371.6900       2078.5999        508.0498         30.0098      4091331.0000      -1801.0452          0.3571
  371.8400       2078.5999        508.0426         30.5119      4091389.0000      -1801.0452          0.3571
  371.9900       2078.5999        508.0352         29.9974      4091448.0000      -1801.0452          0.3571
  372.1400       2078.5999        508.0278         28.3362      4091507.7500      -1801.0452          0.3571
  372.2900       2078.5999        508.0204         26.8071      4091567.7500      -1801.0452          0.3571
  372.4400       2078.5999        508.0129         25.8279      4091627.5000      -1801.0452          0.3571
  372.5900       2078.6829        508.0056         27.9508      4091850.7500      -1801.0452          0.3571
