~VERSION INFORMATION
 VERS.                          2.0   : CWLS LOG ASCII STANDARD - VERSION 2.0
 WRAP.                          NO    : ONE LINE PER DEPTH STEP
#
~Well Information Section
#MNEM     .UNIT     DATA                DESCRIPTION
#-----    -----     --------            --------------
 STRT     .M        28.6400             : START DEPTH
 STOP     .M        1700.0000           : END DEPTH
 STEP     .M        0.1500              : INCREMENT DEPTH
 NULL     .         -999.2500           : NULL VALUE
 COMP     .                              :
 WELL     .         F06-1               : WELL NAME
 EKB      .M        28.6400             : KELLY BUSHING ELEVATION
 EGL      .M        0.0000              : GROUND LEVEL ELEVATION
 EPD      .M        0.0000              : PERMANENT DATUM ELEVATION
 FLD      .                              :
 LOC      . X = 607903.0000 Y = 6077213.0000: WELL LOCATION
 PROV     .                              :
 SRVC     .                              :
 PROV     .                              :
 DATE     .                              :
 API      .                              :
#
~Curve Information Section
#MNEM     .UNIT               Curve #DESCRIPTION
#-----    -----               ----   --------------
 DEPTH    .M                  : 1     DEPTH
 RHOB     .kg/m3              : 2     Density
 DT       .us/m               : 3     Sonic
 GR       .API                : 4     Gamma Ray
 AI       .(m/s)*(kg/m3)      : 5     P-Impedance
 AI_rel   .(m/s)*(kg/m3)      : 6     P-Impedance_rel
 PHIE     .fraction           : 7     Porosity
~A (ASCII LOG DATA)
   28.6400       -999.2500       -999.2500       -999.2500       -999.2500       -999.2500       -999.2500
   28.7900       -999.2500       -999.2500       -999.2500       -999.2500       -999.2500       -999.2500
   28.9400       -999.2500       -999.2500       -999.2500       -999.2500       -999.2500       -999.2500
   29.0900       -999.2500       -999.2500       -999.2500       -999.2500       -999.2500       -999.2500
   29.2400       -999.2500       -999.2500       -999.2500       -999.2500       -999.2500       -999.2500
   29.3900       2048.8999        524.8954       -999.2500      3903444.5000      541397.0000          0.3757
   29.5400       2048.8999        524.8880       -999.2500      3903499.5000        155.7290          0.3757
   29.6900       2048.9829        524.8806       -999.2500      3903712.7500        155.7290          0.3757
   29.8400       2049.0000        524.8731       -999.2500      3903800.7500        155.7290          0.3756
   29.9900       2049.0000        524.8660       -999.2500      3903854.0000        155.7290          0.3756
   30.1400       2049.0000        524.8586       -999.2500      3903908.7500        155.7290          0.3756
   30.2900       2049.0000        524.8512       -999.2500      3903963.7500        155.7290          0.3756
   30.4400       2049.0000        524.8438       -999.2500      3904019.0000        155.7290          0.3756
   30.5900       2049.0000        524.8363       -999.2500      3904074.2500        155.7290          0.3756
   30.7400       2049.0000        524.8289       -999.2500      3904129.5000        155.7290          0.3756
   30.8900       2049.0701        524.8215       -999.2500      3904317.7500        155.7290          0.3756
   31.0400       2049.0999        524.8143       -999.2500      3904428.5000        155.7290          0.3756
   31.1900       2049.0999        524.8070       -999.2500      3904482.7500        155.7290          0.3756
   31.3400       2049.0999        524.7995       -999.2500      3904538.2500        155.7290          0.3756
   31.4900       2049.0999        524.7921       -999.2500      3904593.5000        155.7290          0.3756
   31.6400       2049.0999        524.7847       -999.2500      3904648.5000        155.7290          0.3755
   31.7900       2049.0999        524.7773       -999.2500      3904703.5000        155.7290          0.3755
   31.9400       2049.0999        524.7698       -999.2500      3904759.2500        155.7290          0.3755
   32.0900       2049.1572        524.7626       -999.2500      3904922.5000        155.7290          0.3755
   32.2400       2049.2000        524.7553       -999.2500      3905058.0000        155.7290          0.3755
   32.3900       2049.2000        524.7479       -999.2500      3905113.5000        172.1116          0.3755
   32.5400       2049.2000        524.7404       -999.2500      3905168.7500        405.3166          0.3755
   32.6900       2049.2000        524.7330       -999.2500      3905224.0000        603.4905          0.3755
   32.8400       2049.2000        524.7256       -999.2500      3905279.2500        603.4905          0.3755
   32.9900       2049.2000        524.7182       -999.2500      3905334.2500        603.4905          0.3755
   33.1400       2049.2461        524.7108       -999.2500      3905477.2500        603.4905          0.3755
   33.2900       2049.3000        524.7035       -999.2500      3905634.5000        603.4905          0.3755
   33.4400       2049.3000        524.6962       -999.2500      3905688.5000        603.4905          0.3755
   33.5900       2049.3000        524.6888       -999.2500      3905743.5000        603.4905          0.3754
   33.7400       2049.3000        524.6814       -999.2500      3905799.0000        603.4905          0.3754
   33.8900       2049.3000        524.6740       -999.2500      3905854.2500        603.4905          0.3754
   34.0400       2049.3000        524.6666       -999.2500      3905909.7500        603.4905          0.3754
   34.1900       2049.3000        524.6592       -999.2500      3905964.2500        603.4905          0.3754
   34.3400       2049.3335        524.6520       -999.2500      3906081.2500        603.4905          0.3754
   34.4900       2049.4001        524.6446       -999.2500      3906263.7500        603.4905          0.3754
   34.6400       2049.4001        524.6371       -999.2500      3906319.0000        603.4905          0.3754
   34.7900       2049.4001        524.6298       -999.2500      3906374.2500        603.4905          0.3754
   34.9400       2049.4001        524.6223       -999.2500      3906429.7500        603.4905          0.3754
   35.0900       2049.4001        524.6149       -999.2500      3906485.5000        603.4905          0.3754
   35.2400       2049.4001        524.6075       -999.2500      3906540.2500        603.4905          0.3754
   35.3900       2049.4224        524.6003       -999.2500      3906635.5000        603.4905          0.3754
   35.5400       2049.5000        524.5929       -999.2500      3906839.0000        603.4905          0.3753
   35.6900       2049.5000        524.5856       -999.2500      3906894.0000        603.4905          0.3753
   35.8400       2049.5000        524.5781       -999.2500      3906949.5000        603.4905          0.3753
   35.9900       2049.5000        524.5707       -999.2500      3907004.7500        603.4905          0.3753
   36.1400       2049.5000        524.5632       -999.2500      3907059.7500        606.3883          0.3753
   36.2900       2049.5000        524.5558       -999.2500      3907115.0000        670.1685          0.3753
   36.4400       2049.5000        524.5484       -999.2500      3907170.5000        992.3477          0.3753
   36.5900       2049.5093        524.5413       -999.2500      3907241.5000        992.3477          0.3753
   36.7400       2049.5999        524.5338       -999.2500      3907469.2500        992.3477          0.3753
   36.8900       2049.5999        524.5264       -999.2500      3907524.2500        992.3477          0.3753
   37.0400       2049.5999        524.5190       -999.2500      3907580.0000        992.3477          0.3753
   37.1900       2049.5999        524.5115       -999.2500      3907635.5000        992.3477          0.3753
   37.3400       2049.5999        524.5041       -999.2500      3907690.7500        992.3477          0.3752
   37.4900       2049.5999        524.4967       -999.2500      3907746.0000        992.3477          0.3752
   37.6400       2049.5999        524.4895       -999.2500      3907799.2500        992.3477          0.3752
   37.7900       2049.6980        524.4821       -999.2500      3908042.5000        992.3477          0.3752
   37.9400       2049.7000        524.4747       -999.2500      3908100.7500        992.3477          0.3752
   38.0900       2049.7000        524.4672       -999.2500      3908156.5000        992.3477          0.3752
   38.2400       2049.7000        524.4598       -999.2500      3908211.7500        992.3477          0.3752
   38.3900       2049.7000        524.4524       -999.2500      3908266.7500        992.3477          0.3752
   38.5400       2049.7000        524.4449       -999.2500      3908322.5000        992.3477          0.3752
   38.6900       2049.7000        524.4379       -999.2500      3908375.5000        992.3477          0.3752
   38.8400       2049.7000        524.4305       -999.2500      3908430.2500        992.3477          0.3752
   38.9900       2049.7852        524.4230       -999.2500      3908648.5000        992.3477          0.3752
   39.1400       2049.7998        524.4156       -999.2500      3908731.2500        992.3477          0.3751
   39.2900       2049.7998        524.4082       -999.2500      3908786.5000        992.3477          0.3751
   39.4400       2049.7998        524.4007       -999.2500      3908842.5000        992.3477          0.3751
   39.5900       2049.7998        524.3933       -999.2500      3908897.7500        992.3477          0.3751
