~VERSION INFORMATION
 VERS.                          2.0   : CWLS LOG ASCII STANDARD - VERSION 2.0
 WRAP.                          NO    : ONE LINE PER DEPTH STEP
#
~Well Information Section
#MNEM     .UNIT     DATA                DESCRIPTION
#-----    -----     --------            --------------
 STRT     .M        28.6400             : START DEPTH
 STOP     .M        1700.0000           : END DEPTH
 STEP     .M        0.1500              : INCREMENT DEPTH
 NULL     .         -999.2500           : NULL VALUE
 COMP     .                              :
 WELL     .         F06-1               : WELL NAME
 EKB      .M        28.6400             : KELLY BUSHING ELEVATION
 EGL      .M        0.0000              : GROUND LEVEL ELEVATION
 EPD      .M        0.0000              : PERMANENT DATUM ELEVATION
 FLD      .                              :
 LOC      . X = 607903.0000 Y = 6077213.0000: WELL LOCATION
 PROV     .                              :
 SRVC     .                              :
 PROV     .                              :
 DATE     .                              :
 API      .                              :
#
~Curve Information Section
#MNEM     .UNIT               Curve #DESCRIPTION
#-----    -----               ----   --------------
 DEPTH    .M                  : 1     DEPTH
 RHOB     .kg/m3              : 2     Density
 DT       .us/m               : 3     Sonic
 GR       .API                : 4     Gamma Ray
 AI       .(m/s)*(kg/m3)      : 5     P-Impedance
 AI_rel   .(m/s)*(kg/m3)      : 6     P-Impedance_rel
 PHIE     .fraction           : 7     Porosity
~A (ASCII LOG DATA)
# ...
 1474.9401       2107.8323        491.4178         56.9918      4289384.5000      108006.4844          0.3389
 1475.0901       2095.5251        498.4033         53.5362      4204555.0000      108006.4844          0.3465
 1475.2401       2083.6797        505.1283         51.9172      4125057.0000      108006.4844          0.3539
 1475.3900       2079.7136        507.4026         53.3960      4098745.7500      108006.4844          0.3565
 1475.5400       2077.5000        508.6607         58.2325      4084255.0000      108006.4844          0.3578
 1475.6901       2077.4937        508.6644         59.1275      4084212.7500      108006.4844          0.3578
 1475.8401       2076.4001        509.3143         60.0321      4076854.5000      108006.4844          0.3585
 1475.9901       2076.4001        509.3143         59.1312      4076854.5000      54972.0000          0.3585
 1476.1400       2079.7112        507.4047         53.6002      4098724.5000      37531.7266          0.3565
 1476.2900       2079.7998        507.3536         47.1198      4099309.7500      37079.0898          0.3564
 1476.4401       2076.5994        509.1994         43.8423      4078170.0000      37079.0898          0.3584
 1476.5901       2073.1592        511.1301         43.2345      4056036.7500      37079.0898          0.3605
 1476.7401       2067.6240        514.2479         45.6837      4020695.2500      37079.0898          0.3640
 1476.8900       2067.1001        514.5430         45.1167      4017351.7500      37079.0898          0.3643
 1477.0400       2067.1001        514.5430         46.6164      4017351.7500      37079.0898          0.3643
 1477.1901       2068.1340        513.9798         45.6641      4023766.5000      37079.0898          0.3637
 1477.3401       2065.3411        515.5469         48.6844      4006127.7500      37079.0898          0.3654
 1477.4901       2061.9780        517.4773         51.2814      3984685.2500      37079.0898          0.3675
 1477.6400       2062.2957        517.2785         53.2977      3986820.5000      37079.0898          0.3673
 1477.7900       2065.2908        515.5938         48.5852      4005668.7500      37079.0898          0.3654
 1477.9401       2065.0618        515.7075         45.5164      4004329.0000      37079.0898          0.3655
 1478.0901       2065.7188        515.3497         44.6721      4008384.5000      37079.0898          0.3652
 1478.2401       2064.2744        516.1771         43.8830      3999166.2500      37079.0898          0.3661
 1478.3900       2061.1318        517.9421         43.3219      3979480.2500      37079.0898          0.3680
 1478.5400       2059.4104        518.9332         43.5273      3968548.2500      37079.0898          0.3691
 1478.6901       2061.4846        517.7426         45.5701      3981695.7500      37079.0898          0.3678
 1478.8401       2075.1897        509.9844         50.2495      4069648.2500      37079.0898          0.3593
 1478.9901       2074.0356        510.6392         50.9878      4061818.0000      37079.0898          0.3600
 1479.1400       2068.3115        513.8644         51.6691      4025033.0000      37079.0898          0.3635
 1479.2900       2062.7041        517.0412         48.2413      3989515.0000      37079.0898          0.3670
 1479.4401       2058.0862        519.6830         49.0408      3960291.5000      37079.0898          0.3700
 1479.5901       2056.0725        520.8210         52.0371      3947754.2500      37079.0898          0.3712
 1479.7401       2052.8862        522.6205         48.7284      3928097.0000      33015.0859          0.3732
 1479.8900       2051.1724        523.6138         46.9748      3917337.7500      23169.7891          0.3742
 1480.0400       2053.0835        522.5391         45.9337      3929069.7500      17961.9590          0.3731
 1480.1901       2052.6033        522.7944         45.2711      3926235.0000      17961.9590          0.3733
 1480.3401       2051.0000        523.6926         46.4084      3916419.5000      17961.9590          0.3743
 1480.4901       2053.9590        522.0255         47.5362      3934650.7500      17961.9590          0.3725
 1480.6400       2065.8801        515.2645         47.7557      4009953.0000      17961.9590          0.3651
 1480.7900       2081.2659        506.5342         48.1640      4109131.5000      17961.9590          0.3554
 1480.9401       2088.9609        502.1759         48.2750      4159829.7500      17961.9590          0.3507
 1481.0901       2088.6394        502.3460         49.1204      4157792.7500      17961.9590          0.3509
 1481.2401       2087.2156        503.1516         50.0210      4148286.0000      17961.9590          0.3518
 1481.3900       2082.1912        506.0233         48.0165      4115154.2500      17961.9590          0.3549
 1481.5400       2071.3149        512.1819         47.0258      4044181.7500      17961.9590          0.3617
 1481.6901       2066.2224        515.0417         46.2774      4011765.7500      17961.9590          0.3648
 1481.8401       2064.8000        515.8500         46.0072      4002714.0000      17961.9590          0.3657
 1481.9901       2064.4150        516.0787         44.2472      4000196.7500      17961.9590          0.3659
 1482.1400       2062.1641        517.3764         43.0482      3985842.7500      17961.9590          0.3674
 1482.2900       2059.8298        518.7030         41.8361      3971124.2500      17961.9590          0.3689
 1482.4401       2062.0942        517.4161         42.6600      3985376.7500      17961.9590          0.3674
 1482.5901       2065.3279        515.5703         46.2544      4005956.5000      17961.9590          0.3654
 1482.7401       2068.4817        513.7655         51.0936      4026136.7500      17961.9590          0.3634
 1482.8900       2064.2524        516.1896         52.7537      3999082.5000      17961.9590          0.3661
 1483.0400       2060.4541        518.3414         51.6729      3975132.7500      17961.9590          0.3684
 1483.1901       2065.5747        515.4161         47.6006      4007601.2500      17961.9590          0.3652
 1483.3401       2071.3879        512.1403         45.0071      4044835.0000      17961.9590          0.3617
 1483.4901       2083.0715        505.5175         43.4606      4120673.5000      17961.9590          0.3543
 1483.6400       2081.9092        506.1599         45.0389      4113145.7500      22673.6328          0.3550
 1483.7900       2081.0000        506.7001         47.0795      4106965.5000      46678.0938          0.3557
 1483.9401       2080.1790        507.1628         45.8014      4101629.5000      54958.7109          0.3562
 1484.0901       2075.7803        509.6381         44.9630      4073064.5000      54958.7109          0.3588
 1484.2401       2079.2947        507.6408         45.5649      4096010.7500      54958.7109          0.3567
 1484.3900       2075.4155        509.8454         54.0043      4070679.5000      54958.7109          0.3591
 1484.5400       2077.3687        508.7364         57.0214      4083390.5000      54958.7109          0.3579
 1484.6901       2075.5959        509.7536         53.4385      4071768.0000      54958.7109          0.3590
 1484.8401       2072.6777        511.3766         50.0658      4053138.2500      54958.7109          0.3608
 1484.9901       2076.6079        509.1895         50.9341      4078271.2500      54958.7109          0.3584
 1485.1400       2083.4275        505.3206         50.8900      4122990.0000      54958.7109          0.3541
 1485.2900       2092.5000        500.1647         47.7498      4183622.0000      54958.7109          0.3485
 1485.4401       2097.0889        497.5569         45.4809      4214773.0000      54958.7109          0.3456
 1485.5901       2099.0642        496.4363         45.4753      4228266.0000      54958.7109          0.3443
 1485.7401       2097.1685        497.5117         45.4753      4215316.0000      54958.7109          0.3456
 1485.8900       2090.5427        501.2770         46.3399      4170451.2500      54958.7109          0.3497
