~VERSION INFORMATION
 VERS.                          2.0   : CWLS LOG ASCII STANDARD - VERSION 2.0
 WRAP.                          NO    : ONE LINE PER DEPTH STEP
#
~Well Information Section
#MNEM     .UNIT     DATA                DESCRIPTION
#-----    -----     --------            --------------
 STRT     .M        28.6400             : START DEPTH
 STOP     .M        1700.0000           : END DEPTH
 STEP     .M        0.1500              : INCREMENT DEPTH
 NULL     .         -999.2500           : NULL VALUE
 COMP     .                              :
 WELL     .         F06-1               : WELL NAME
 EKB      .M        28.6400             : KELLY BUSHING ELEVATION
 EGL      .M        0.0000              : GROUND LEVEL ELEVATION
 EPD      .M        0.0000              : PERMANENT DATUM ELEVATION
 FLD      .                              :
 LOC      . X = 607903.0000 Y = 6077213.0000: WELL LOCATION
 PROV     .                              :
 SRVC     .                              :
 PROV     .                              :
 DATE     .                              :
 API      .                              :
#
~Curve Information Section
#MNEM     .UNIT               Curve #DESCRIPTION
#-----    -----               ----   --------------
 DEPTH    .M                  : 1     DEPTH
 RHOB     .kg/m3              : 2     Density
 DT       .us/m               : 3     Sonic
 GR       .API                : 4     Gamma Ray
 AI       .(m/s)*(kg/m3)      : 5     P-Impedance
 AI_rel   .(m/s)*(kg/m3)      : 6     P-Impedance_rel
 PHIE     .fraction           : 7     Porosity
~A (ASCII LOG DATA)
# ...
  139.6400       2058.5000        519.4697         19.9914      3962695.0000        761.9297          0.3697
  139.7900       2058.5000        519.4623         22.7753      3962751.2500        780.3127          0.3697
  139.9400       2058.5000        519.4552         25.8109      3962806.0000        808.2831          0.3697
  140.0900       2058.5000        519.4478         26.1432      3962862.7500        808.2831          0.3697
  140.2400       2058.5000        519.4403         25.9370      3962919.5000        808.2831          0.3697
  140.3900       2058.5000        519.4329         25.7553      3962976.2500        808.2831          0.3697
  140.5400       2058.5181        519.4255         25.4122      3963067.7500        808.2831          0.3697
  140.6900       2058.5999        519.4180         24.1708      3963282.0000        808.2831          0.3696
  140.8400       2058.5999        519.4106         24.3067      3963338.0000        808.2831          0.3696
  140.9900       2058.5999        519.4035         25.1615      3963392.2500        808.2831          0.3696
  141.1400       2058.5999        519.3961         25.8956      3963449.5000        808.2831          0.3696
  141.2900       2058.5999        519.3887         27.7143      3963505.7500        808.2831          0.3696
  141.4400       2058.5999        519.3812         30.1659      3963562.0000        808.2831          0.3696
  141.5900       2058.6067        519.3738         32.9144      3963632.5000        808.2831          0.3696
  141.7400       2058.7002        519.3663         36.2205      3963869.0000        808.2831          0.3696
  141.8900       2058.7002        519.3589         34.6040      3963925.5000        808.2831          0.3696
  142.0400       2058.7002        519.3515         29.9264      3963982.2500        808.2831          0.3696
  142.1900       2058.7002        519.3444         29.6312      3964036.0000        808.2831          0.3696
  142.3400       2058.7002        519.3370         29.9329      3964093.2500        808.2831          0.3696
  142.4900       2058.7002        519.3294         29.6328      3964151.0000        808.2831          0.3695
  142.6400       2058.7002        519.3220         26.0874      3964207.5000        808.2831          0.3695
  142.7900       2058.7002        519.3146         23.9581      3964264.2500        808.2831          0.3695
  142.9400       2058.7942        519.3072         24.1530      3964501.7500        808.2831          0.3695
  143.0900       2058.8000        519.2997         25.8545      3964570.0000        808.2831          0.3695
  143.2400       2058.8000        519.2927         26.2662      3964624.0000        808.2831          0.3695
  143.3900       2058.8000        519.2852         25.4809      3964680.5000        808.2831          0.3695
  143.5400       2058.8000        519.2778         22.4572      3964737.2500        808.2831          0.3695
  143.6900       2058.8000        519.2704         20.7419      3964793.7500        780.1946          0.3695
  143.8400       2058.8000        519.2629         20.2753      3964850.5000        774.7473          0.3695
  143.9900       2058.8831        519.2556         21.2344      3965067.0000        774.5779          0.3695
  144.1400       2058.9001        519.2482         22.9213      3965156.2500        774.5779          0.3695
  144.2900       2058.9001        519.2410         24.9537      3965211.0000        774.5779          0.3694
  144.4400       2058.9001        519.2336         26.8777      3965267.5000        774.5779          0.3694
  144.5900       2058.9001        519.2261         27.6893      3965324.7500        774.5779          0.3694
  144.7400       2058.9001        519.2188         28.4088      3965381.2500        774.5779          0.3694
  144.8900       2058.9001        519.2114         29.3575      3965437.5000        774.5779          0.3694
  145.0400       2058.9001        519.2039         30.2822      3965494.2500        774.5779          0.3694
  145.1900       2058.9702        519.1965         30.6640      3965686.2500        774.5779          0.3694
  145.3400       2059.0000        519.1893         30.2143      3965798.5000        774.5779          0.3694
  145.4900       2059.0000        519.1819         29.5437      3965854.5000        774.5779          0.3694
  145.6400       2059.0000        519.1746         28.5339      3965911.0000        774.5779          0.3694
  145.7900       2059.0000        519.1671         26.9535      3965967.7500        774.5779          0.3694
  145.9400       2059.0000        519.1597         24.7862      3966024.7500        774.5779          0.3694
  146.0900       2059.0000        519.1523         22.9497      3966081.2500        774.5779          0.3694
  146.2400       2059.0588        519.1449         22.7087      3966251.0000        774.5779          0.3693
  146.3900       2059.0999        519.1374         22.4362      3966387.0000        774.5779          0.3693
  146.5400       2059.0999        519.1302         22.7240      3966442.2500        774.5779          0.3693
  146.6900       2059.0999        519.1229         22.2759      3966497.5000        774.5779          0.3693
  146.8400       2059.0999        519.1154         20.8041      3966554.7500        774.5779          0.3693
  146.9900       2059.0999        519.1080         20.0739      3966612.0000        774.5779          0.3693
  147.1400       2059.0999        519.1006         20.8229      3966668.2500        774.5779          0.3693
  147.2900       2059.0999        519.0932         22.9028      3966725.0000        774.5779          0.3693
  147.4400       2059.1460        519.0859         25.4412      3966869.5000        695.7574          0.3693
  147.5900       2059.2000        519.0787         27.5891      3967028.7500        569.3972          0.3693
  147.7400       2059.2000        519.0712         29.7188      3967085.7500        526.6545          0.3693
  147.8900       2059.2000        519.0638         31.9506      3967142.2500        526.6545          0.3693
  148.0400       2059.2000        519.0564         30.0108      3967198.7500        526.6545          0.3693
  148.1900       2059.2000        519.0490         25.4121      3967255.7500        526.6545          0.3692
  148.3400       2059.2000        519.0415         24.8065      3967312.7500        526.6545          0.3692
  148.4900       2059.2000        519.0341         26.0787      3967369.2500        526.6545          0.3692
  148.6400       2059.2334        519.0268         27.8218      3967489.5000        526.6545          0.3692
  148.7900       2059.3000        519.0197         28.1132      3967672.7500        526.6545          0.3692
  148.9400       2059.3000        519.0121         25.8309      3967730.0000        526.6545          0.3692
  149.0900       2059.3000        519.0047         22.8718      3967787.0000        526.6545          0.3692
  149.2400       2059.3000        518.9973         21.0565      3967843.5000        526.6545          0.3692
  149.3900       2059.3000        518.9899         20.7529      3967900.2500        526.6545          0.3692
  149.5400       2059.3000        518.9825         20.5160      3967957.0000        526.6545          0.3692
  149.6900       2059.3223        518.9751         20.9344      3968056.0000        526.6545          0.3692
  149.8400       2059.4001        518.9680         23.2854      3968261.0000        526.6545          0.3692
  149.9900       2059.4001        518.9605         25.9811      3968317.7500        526.6545          0.3691
  150.1400       2059.4001        518.9531         22.6788      3968374.2500        526.6545          0.3691
  150.2900       2059.4001        518.9456         25.3531      3968431.2500        526.6545          0.3691
  150.4400       2059.4001        518.9382         23.4357      3968488.5000        526.6545          0.3691
  150.5900       2059.4001        518.9308         22.5784      3968545.0000        526.6545          0.3691
