~VERSION INFORMATION
 VERS.                          2.0   : CWLS LOG ASCII STANDARD - VERSION 2.0
 WRAP.                          NO    : ONE LINE PER DEPTH STEP
#
~Well Information Section
#MNEM     .UNIT     DATA                DESCRIPTION
#-----    -----     --------            --------------
 STRT     .M        28.6400             : START DEPTH
 STOP     .M        1700.0000           : END DEPTH
 STEP     .M        0.1500              : INCREMENT DEPTH
 NULL     .         -999.2500           : NULL VALUE
 COMP     .                              :
 WELL     .         F06-1               : WELL NAME
 EKB      .M        28.6400             : KELLY BUSHING ELEVATION
 EGL      .M        0.0000              : GROUND LEVEL ELEVATION
 EPD      .M        0.0000              : PERMANENT DATUM ELEVATION
 FLD      .                              :
 LOC      . X = 607903.0000 Y = 6077213.0000: WELL LOCATION
 PROV     .                              :
 SRVC     .                              :
 PROV     .                              :
 DATE     .                              :
 API      .                              :
#
~Curve Information Section
#MNEM     .UNIT               Curve #DESCRIPTION
#-----    -----               ----   --------------
 DEPTH    .M                  : 1     DEPTH
 RHOB     .kg/m3              : 2     Density
 DT       .us/m               : 3     Sonic
 GR       .API                : 4     Gamma Ray
 AI       .(m/s)*(kg/m3)      : 5     P-Impedance
 AI_rel   .(m/s)*(kg/m3)      : 6     P-Impedance_rel
 PHIE     .fraction           : 7     Porosity
~A (ASCII LOG DATA)
# ...
  924.8900       2180.2546        450.2932         46.8516      4841863.5000      -18836.1602          0.2936
  925.0400       2178.9045        451.0369         47.5683      4830880.5000      -18836.1602          0.2944
  925.1901       2177.8049        451.6801         48.1071      4821567.5000      -18836.1602          0.2952
  925.3400       2175.7651        452.8445         46.7532      4804671.0000      -18836.1602          0.2964
  925.4901       2172.5645        454.6412         45.6741      4778656.0000      -18836.1602          0.2983
  925.6400       2170.9580        455.5699         46.8683      4765370.0000      -18836.1602          0.2994
  925.7900       2170.7002        455.7231         48.9994      4763200.0000      -18836.1602          0.2996
  925.9401       2170.7002        455.7231         52.9062      4763200.0000      -19010.8926          0.2996
  926.0900       2170.7002        455.7231         54.1184      4763200.0000      -20249.5605          0.2996
  926.2401       2170.7002        455.7231         49.6516      4763200.0000      -20712.1719          0.2996
  926.3900       2170.7002        455.7231         48.3737      4763200.0000      -20712.1719          0.2996
  926.5400       2170.7002        455.7231         49.2688      4763200.0000      -20712.1719          0.2996
  926.6901       2173.7073        454.0140         51.3538      4787803.0000      -20712.1719          0.2977
  926.8400       2176.7666        452.2753         53.1692      4812936.5000      -20712.1719          0.2958
  926.9901       2179.0298        450.9893         51.4012      4831679.0000      -20712.1719          0.2944
  927.1400       2181.2930        449.7032         47.5448      4850530.5000      -20712.1719          0.2930
  927.2900       2182.2000        449.1876         43.5167      4858103.5000      -20712.1719          0.2924
  927.4401       2182.2000        449.1876         40.0095      4858103.5000      -20712.1719          0.2924
  927.5900       2179.6350        450.6453         39.9200      4836752.5000      -20712.1719          0.2940
  927.7401       2177.5999        451.8018         43.3896      4819812.0000      -20712.1719          0.2953
  927.8900       2177.5999        451.8018         45.7143      4819812.0000      -20712.1719          0.2953
  928.0400       2175.2568        453.1334         43.1497      4800533.0000      -20712.1719          0.2967
  928.1901       2171.8650        455.0610         37.7775      4772703.0000      -20712.1719          0.2988
  928.3400       2170.7002        455.7231         35.0126      4763200.0000      -20712.1719          0.2996
  928.4901       2170.1460        456.0249         36.6930      4758836.0000      -20712.1719          0.2999
  928.6400       2170.0349        456.0854         40.2737      4757961.0000      -20712.1719          0.3000
  928.7900       2170.7002        455.7231         43.4636      4763200.0000      -20712.1719          0.2996
  928.9401       2170.7002        455.7231         45.2086      4763200.0000      -20712.1719          0.2996
  929.0900       2172.5293        454.6836         45.4753      4778164.0000      -20712.1719          0.2984
  929.2401       2176.1775        452.6101         45.3017      4808074.5000      -20712.1719          0.2962
  929.3900       2177.5999        451.8018         45.3529      4819812.0000      -20712.1719          0.2953
  929.5400       2177.5999        451.8018         44.3405      4819812.0000      -20712.1719          0.2953
  929.6901       2177.5999        451.8018         41.2294      4819812.0000      -20712.1719          0.2953
  929.8400       2177.5999        451.8018         40.2042      4819812.0000      -20712.1719          0.2953
  929.9901       2176.2131        452.5899         38.3775      4808401.5000      -20712.1719          0.2961
  930.1400       2172.6575        454.6024         37.7420      4779250.0000      -20712.1719          0.2983
  930.2900       2171.5032        455.2458         37.7420      4769960.0000      -18959.0488          0.2990
  930.4401       2170.1162        456.0549         37.9730      4758464.5000      -7118.8174          0.3000
  930.5900       2168.4001        457.0302         38.8680      4744545.5000      13730.7148          0.3010
  930.7401       2168.4001        457.0302         39.5616      4744545.5000      13730.7148          0.3010
  930.8900       2167.9275        457.2988         39.7486      4740733.0000      13730.7148          0.3013
  931.0400       2166.5361        458.0895         40.4714      4729512.5000      13730.7148          0.3021
  931.1901       2168.4001        457.0302         40.6295      4744545.5000      13730.7148          0.3010
  931.3400       2168.4001        457.0302         41.9544      4744545.5000      13730.7148          0.3010
  931.4901       2168.7258        456.8451         44.8916      4747186.5000      13730.7148          0.3008
  931.6400       2170.9885        455.5592         43.9395      4765552.0000      13730.7148          0.2994
  931.7900       2173.0000        454.4160         42.8455      4781962.0000      13730.7148          0.2981
  931.9401       2172.8877        454.4771         43.9537      4781072.5000      13730.7148          0.2982
  932.0900       2171.7148        455.1201         46.9455      4771741.0000      13730.7148          0.2989
  932.2401       2170.6260        455.7635         48.0922      4762615.5000      13730.7148          0.2996
  932.3900       2169.5000        456.3766         46.3436      4753749.0000      13730.7148          0.3003
  932.5400       2169.5684        456.3378         45.5023      4754304.5000      13730.7148          0.3003
  932.6901       2171.8315        455.0515         46.4417      4772717.5000      13730.7148          0.2988
  932.8400       2174.0999        453.7625         50.4792      4791273.5000      13730.7148          0.2974
  932.9901       2181.0828        449.8508         52.7481      4848459.5000      13730.7148          0.2931
  933.1400       2183.3577        448.5580         56.3262      4867504.5000      13730.7148          0.2917
  933.2900       2187.8408        446.0101         57.7104      4905370.5000      13730.7148          0.2889
  933.4401       2190.1841        444.6785         58.1896      4925323.5000      13730.7148          0.2874
  933.5900       2190.3000        444.6125         55.6642      4926312.0000      13730.7148          0.2873
  933.7401       2186.0798        447.0108         49.6405      4890458.0000      13730.7148          0.2900
  933.8900       2184.6182        447.8159         45.8337      4878386.5000      13730.7148          0.2908
  934.0400       2183.5261        448.4591         45.4753      4868954.0000      13730.7148          0.2916
  934.1901       2184.3567        447.9654         45.4753      4876175.0000      13730.7148          0.2910
  934.3400       2186.4639        446.7641         44.6984      4894008.0000      13730.7148          0.2897
  934.4901       2190.6533        444.3833         44.1844      4929679.5000      13730.7148          0.2871
  934.6400       2192.3862        443.4220         46.7272      4944245.5000      13730.7148          0.2860
  934.7900       2195.3389        441.7261         53.1579      4969930.5000      14094.4141          0.2841
  934.9401       2197.3423        440.5870         56.0102      4987311.5000      53008.9609          0.2829
  935.0900       2198.7832        439.7721         58.8566      4999828.0000      63350.7578          0.2820
  935.2401       2198.4939        439.9299         57.8542      4997374.5000      63350.7578          0.2822
  935.3900       2198.2998        440.0378         54.6040      4995707.0000      63350.7578          0.2823
  935.5400       2195.8337        441.4599         47.0639      4974053.5000      63350.7578          0.2839
  935.6901       2194.4033        442.2442         41.6607      4961973.5000      63350.7578          0.2847
  935.8400       2193.2983        442.8943         39.2095      4952198.0000      63350.7578          0.2854
