~VERSION INFORMATION
 VERS.                          2.0   : CWLS LOG ASCII STANDARD - VERSION 2.0
 WRAP.                          NO    : ONE LINE PER DEPTH STEP
#
~Well Information Section
#MNEM     .UNIT     DATA                DESCRIPTION
#-----    -----     --------            --------------
 STRT     .M        28.6400             : START DEPTH
 STOP     .M        1700.0000           : END DEPTH
 STEP     .M        0.1500              : INCREMENT DEPTH
 NULL     .         -999.2500           : NULL VALUE
 COMP     .                              :
 WELL     .         F06-1               : WELL NAME
 EKB      .M        28.6400             : KELLY BUSHING ELEVATION
 EGL      .M        0.0000              : GROUND LEVEL ELEVATION
 EPD      .M        0.0000              : PERMANENT DATUM ELEVATION
 FLD      .                              :
 LOC      . X = 607903.0000 Y = 6077213.0000: WELL LOCATION
 PROV     .                              :
 SRVC     .                              :
 PROV     .                              :
 DATE     .                              :
 API      .                              :
#
~Curve Information Section
#MNEM     .UNIT               Curve #DESCRIPTION
#-----    -----               ----   --------------
 DEPTH    .M                  : 1     DEPTH
 RHOB     .kg/m3              : 2     Density
 DT       .us/m               : 3     Sonic
 GR       .API                : 4     Gamma Ray
 AI       .(m/s)*(kg/m3)      : 5     P-Impedance
 AI_rel   .(m/s)*(kg/m3)      : 6     P-Impedance_rel
 PHIE     .fraction           : 7     Porosity
~A (ASCII LOG DATA)
# ...
  583.1900       2096.8999        497.6415         71.4741      4213675.5000      66486.4531          0.3457
  583.3400       2096.8999        497.6341         69.9452      4213738.0000      66486.4531          0.3457
  583.4901       2096.8999        497.6267         69.7538      4213801.0000      66486.4531          0.3457
  583.6400       2096.8999        497.6193         68.5171      4213864.0000      66486.4531          0.3457
  583.7900       2096.9653        497.6118         67.4682      4214058.0000      66486.4531          0.3457
  583.9400       2097.0000        497.6046         67.8904      4214189.0000      66486.4531          0.3456
  584.0900       2097.0000        497.5974         67.6552      4214251.0000      66486.4531          0.3456
  584.2401       2097.0000        497.5899         66.4839      4214314.0000      92799.2266          0.3456
  584.3900       2097.0000        497.5825         65.6776      4214376.5000      111463.7656          0.3456
  584.5400       2097.0000        497.5750         66.0129      4214439.5000      112535.7031          0.3456
  584.6900       2097.0000        497.5676         67.6690      4214502.5000      112535.7031          0.3456
  584.8400       2097.0542        497.5602         68.4289      4214674.0000      112535.7031          0.3456
  584.9901       2097.1001        497.5528         67.9812      4214829.0000      112535.7031          0.3456
  585.1400       2097.1001        497.5456         68.7661      4214890.5000      112535.7031          0.3456
  585.2900       2097.1001        497.5383         70.1071      4214952.0000      112535.7031          0.3456
  585.4400       2097.1001        497.5309         72.2323      4215015.0000      112535.7031          0.3456
  585.5900       2097.1001        497.5234         74.9736      4215078.0000      112535.7031          0.3456
  585.7401       2097.1001        497.5160         75.5484      4215141.0000      112535.7031          0.3456
  585.8900       2097.1001        497.5086         74.4579      4215204.0000      112535.7031          0.3455
  586.0400       2097.1414        497.5011         73.8672      4215350.0000      112535.7031          0.3455
  586.1900       2097.2000        497.4938         72.8679      4215530.0000      112535.7031          0.3455
  586.3400       2097.2000        497.4866         71.2970      4215590.5000      112535.7031          0.3455
  586.4901       2097.2000        497.4792         71.0277      4215653.5000      112535.7031          0.3455
  586.6400       2097.2000        497.4718         70.3803      4215716.5000      112535.7031          0.3455
  586.7900       2097.2000        497.4644         72.6184      4215779.5000      112535.7031          0.3455
  586.9400       2097.2000        497.4569         73.7009      4215842.5000      112535.7031          0.3455
  587.0900       2097.2000        497.4495         72.6323      4215905.5000      112535.7031          0.3455
  587.2401       2097.2285        497.4422         71.9907      4216025.0000      112535.7031          0.3455
  587.3900       2097.3000        497.4350         70.9960      4216229.5000      112535.7031          0.3455
  587.5400       2097.3000        497.4275         70.4949      4216292.5000      112535.7031          0.3455
  587.6900       2097.3000        497.4201         70.3869      4216355.5000      112535.7031          0.3454
  587.8400       2097.3000        497.4127         70.1821      4216418.5000      112535.7031          0.3454
  587.9901       2097.3000        497.4053         71.2982      4216481.0000      112535.7031          0.3454
  588.1400       2097.3000        497.3979         73.9380      4216544.0000      109676.4531          0.3454
  588.2900       2097.3174        497.3904         74.9649      4216642.0000      95425.7812          0.3454
  588.4400       2097.3999        497.3833         74.3616      4216868.5000      85749.1875          0.3454
  588.5900       2097.3999        497.3759         72.5123      4216931.5000      85749.1875          0.3454
  588.7401       2097.3999        497.3685         68.6180      4216994.0000      85749.1875          0.3454
  588.8900       2097.3999        497.3611         67.8717      4217056.5000      85749.1875          0.3454
  589.0400       2097.3999        497.3536         64.9083      4217120.0000      85749.1875          0.3454
  589.1900       2097.3999        497.3462         63.2623      4217183.0000      85749.1875          0.3454
  589.3400       2097.3999        497.3388         57.6738      4217246.0000      85749.1875          0.3454
  589.4901       2097.4045        497.3313         46.7985      4217318.0000      85749.1875          0.3453
  589.6400       2097.5000        497.3242         45.8902      4217570.5000      85749.1875          0.3453
  589.7900       2097.5000        497.3168         44.5960      4217633.5000      85749.1875          0.3453
  589.9400       2097.5000        497.3094         46.8400      4217696.5000      85749.1875          0.3453
  590.0900       2097.5000        497.3019         46.0668      4217760.5000      85749.1875          0.3453
  590.2401       2097.5000        497.2945         45.0395      4217823.5000      85749.1875          0.3453
  590.3900       2097.5000        497.2870         44.1417      4217886.5000      85749.1875          0.3453
  590.5400       2097.5000        497.2799         44.9745      4217947.0000      85749.1875          0.3453
  590.6900       2097.5935        497.2725         43.7462      4218197.5000      85749.1875          0.3453
  590.8400       2097.6001        497.2650         45.3250      4218273.5000      85749.1875          0.3453
  590.9901       2097.6001        497.2576         43.8348      4218336.5000      85749.1875          0.3453
  591.1400       2097.6001        497.2502         41.2385      4218399.5000      85749.1875          0.3453
  591.2900       2097.6001        497.2428         36.9714      4218462.5000      85749.1875          0.3452
  591.4400       2097.6001        497.2354         34.8243      4218525.5000      85749.1875          0.3452
  591.5900       2097.6001        497.2279         37.6047      4218588.5000      85749.1875          0.3452
  591.7401       2097.6001        497.2208         41.9334      4218649.5000      85749.1875          0.3452
  591.8900       2097.6807        497.2134         42.0131      4218874.5000      85749.1875          0.3452
  592.0400       2097.7002        497.2060         39.6808      4218976.5000      85749.1875          0.3452
  592.1900       2097.7002        497.1985         35.2351      4219039.5000      69242.4453          0.3452
  592.3400       2097.7002        497.1911         36.8596      4219102.5000      -13402.9287          0.3452
  592.4901       2097.7002        497.1837         39.7663      4219165.5000      -38311.2227          0.3452
  592.6400       2097.7002        497.1762         42.1220      4219228.5000      -38311.2227          0.3452
  592.7900       2097.7002        497.1691         42.1004      4219289.5000      -38311.2227          0.3452
  592.9400       2097.7695        497.1617         40.2587      4219491.0000      -38311.2227          0.3452
  593.0900       2097.8000        497.1543         41.1023      4219615.5000      -38311.2227          0.3451
  593.2401       2097.8000        497.1469         42.4379      4219678.5000      -38311.2227          0.3451
  593.3900       2097.8000        497.1395         42.7459      4219741.5000      -38311.2227          0.3451
  593.5400       2097.8000        497.1321         41.8870      4219804.5000      -38311.2227          0.3451
  593.6900       2069.8313        513.0211         41.3812      4038141.5000      -38311.2227          0.3626
  593.8400       2052.2002        523.0391         42.1962      3923607.7500      -38311.2227          0.3736
  593.9901       2052.2002        523.0391         44.0691      3923607.7500      -38311.2227          0.3736
  594.1400       2052.2002        523.0391         46.5645      3923607.7500      -38311.2227          0.3736
