~VERSION INFORMATION
 VERS.                          2.0   : CWLS LOG ASCII STANDARD - VERSION 2.0
 WRAP.                          NO    : ONE LINE PER DEPTH STEP
#
~Well Information Section
#MNEM     .UNIT     DATA                DESCRIPTION
#-----    -----     --------            --------------
 STRT     .M        28.6400             : START DEPTH
 STOP     .M        1700.0000           : END DEPTH
 STEP     .M        0.1500              : INCREMENT DEPTH
 NULL     .         -999.2500           : NULL VALUE
 COMP     .                              :
 WELL     .         F06-1               : WELL NAME
 EKB      .M        28.6400             : KELLY BUSHING ELEVATION
 EGL      .M        0.0000              : GROUND LEVEL ELEVATION
 EPD      .M        0.0000              : PERMANENT DATUM ELEVATION
 FLD      .                              :
 LOC      . X = 607903.0000 Y = 6077213.0000: WELL LOCATION
 PROV     .                              :
 SRVC     .                              :
 PROV     .                              :
 DATE     .                              :
 API      .                              :
#
~Curve Information Section
#MNEM     .UNIT               Curve #DESCRIPTION
#-----    -----               ----   --------------
 DEPTH    .M                  : 1     DEPTH
 RHOB     .kg/m3              : 2     Density
 DT       .us/m               : 3     Sonic
 GR       .API                : 4     Gamma Ray
 AI       .(m/s)*(kg/m3)      : 5     P-Impedance
 AI_rel   .(m/s)*(kg/m3)      : 6     P-Impedance_rel
 PHIE     .fraction           : 7     Porosity
~A (ASCII LOG DATA)
# ...
  693.4400       2057.5608        519.9886         80.3812      3956960.2500      -3584.8530          0.3703
  693.5900       2061.9592        517.4645         79.6999      3984750.5000      15196.7217          0.3675
  693.7401       2057.6660        519.9042         80.8266      3957782.2500      22171.3047          0.3702
  693.8900       2055.5999        521.0784         83.9592      3944895.2500      22171.3047          0.3715
  694.0400       2055.5234        521.1239         87.0928      3944404.7500      22171.3047          0.3715
  694.1900       2054.7454        521.5925         90.2254      3939375.7500      22171.3047          0.3720
  694.3400       2058.9688        519.1911         93.1718      3965727.5000      22171.3047          0.3694
  694.4901       2055.5762        521.0925         91.3418      3944743.2500      22171.3047          0.3715
  694.6400       2054.4937        521.7354         87.7643      3937807.7500      22171.3047          0.3722
  694.7900       2053.2998        522.3855         84.5968      3930622.0000      22171.3047          0.3729
  694.9400       2052.2119        523.0322         86.3971      3923682.0000      22171.3047          0.3736
  695.0900       2053.6604        522.1846         87.7450      3932825.0000      22171.3047          0.3727
  695.2401       2055.5195        521.1243         88.6524      3944395.2500      22171.3047          0.3716
  695.3900       2051.2678        523.5405         90.4046      3918076.7500      22171.3047          0.3741
  695.5400       2045.7244        526.7170         89.2474      3883930.7500      22171.3047          0.3776
  695.6900       2039.0233        530.5272         91.6286      3843416.0000      22171.3047          0.3819
  695.8400       2038.3999        530.8815         94.3137      3839651.2500      22171.3047          0.3823
  695.9901       2039.3652        530.3080         93.8062      3845625.0000      22171.3047          0.3816
  696.1400       2044.4974        527.4125         93.3028      3876493.5000      22171.3047          0.3784
  696.2900       2045.3000        526.9603         91.3170      3881317.2500      22171.3047          0.3779
  696.4400       2044.3047        527.5024         89.0788      3875443.0000      22171.3047          0.3786
  696.5900       2045.0759        527.0823         89.4308      3879994.7500      22171.3047          0.3780
  696.7401       2046.1771        526.4391         83.4342      3886826.7500      22171.3047          0.3773
  696.8900       2049.9946        524.2640         81.1564      3910257.7500      22171.3047          0.3749
  697.0400       2052.7610        522.6918         82.6991      3927293.7500      22171.3047          0.3732
  697.1900       2056.7485        520.4257         84.9373      3952077.7500      22171.3047          0.3707
  697.3400       2057.8999        519.7713         89.1771      3959241.2500      27319.6816          0.3700
  697.4901       2058.7610        519.3022         91.1634      3964477.5000      31762.8438          0.3695
  697.6400       2060.7136        518.2006         92.6971      3976679.2500      32775.0625          0.3683
  697.7900       2062.1541        517.3627         91.6807      3985898.2500      32775.0625          0.3674
  697.9400       2055.6040        521.0952         90.0517      3944937.7500      32775.0625          0.3715
  698.0900       2050.6975        523.8930         87.5201      3914351.7500      32775.0625          0.3746
  698.2401       2046.9675        526.0126         84.3864      3891512.0000      32775.0625          0.3769
  698.3900       2044.5543        527.3665         81.2531      3876915.7500      32775.0625          0.3784
  698.5400       2044.1001        527.6138         80.3232      3874235.2500      32775.0625          0.3787
  698.6900       2048.1665        525.3029         83.4517      3899096.0000      32775.0625          0.3761
  698.8400       2051.6880        523.3180         87.3319      3920540.0000      32775.0625          0.3739
  698.9901       2052.2002        523.0391         91.9894      3923607.7500      32775.0625          0.3736
  699.1400       2052.2002        523.0391         92.3867      3923607.7500      32775.0625          0.3736
  699.2900       2051.5693        523.3826         88.5976      3919829.5000      32775.0625          0.3740
  699.4400       2051.6116        523.3596         85.7123      3920082.5000      32775.0625          0.3739
  699.5900       2052.2002        523.0391         85.0458      3923607.7500      32775.0625          0.3736
  699.7401       2051.1016        523.6633         86.5930      3916841.5000      32775.0625          0.3743
  699.8900       2049.3464        524.6477         87.5711      3906140.2500      32775.0625          0.3754
  700.0400       2048.3882        525.1810         86.6670      3900347.7500      32775.0625          0.3760
  700.1900       2047.8282        525.5126         86.0912      3896820.2500      32775.0625          0.3763
  700.3400       2047.6000        525.6533         87.1685      3895343.2500      32775.0625          0.3765
  700.4901       2049.8655        524.3544         89.3209      3909365.7500      32775.0625          0.3751
  700.6400       2052.8804        522.6348         90.7919      3927947.0000      32775.0625          0.3732
  700.7900       2050.9216        523.7553         89.3472      3915819.2500      32775.0625          0.3744
  700.9400       2049.1196        524.7711         86.6900      3904789.5000      32775.0625          0.3756
  701.0900       2050.6675        523.9100         86.4171      3914167.2500      29401.0078          0.3746
  701.2401       2054.3926        521.7931         87.8024      3937248.2500      20448.4941          0.3722
  701.3900       2060.4873        518.3293         86.7341      3975278.0000      15697.4287          0.3684
  701.5400       2064.0142        516.3170         84.5975      3997574.0000      15697.4287          0.3662
  701.6900       2065.1233        515.6740         79.8027      4004709.5000      15697.4287          0.3655
  701.8400       2065.6958        515.3622         79.7145      4008243.0000      15697.4287          0.3652
  701.9901       2064.5386        516.0053         82.4933      4001004.5000      15697.4287          0.3659
  702.1400       2062.9250        516.9377         86.2637      3990679.0000      15697.4287          0.3669
  702.2900       2059.5015        518.8670         87.2327      3969241.2500      15697.4287          0.3691
  702.4400       2056.1375        520.7959         86.9574      3948080.0000      15697.4287          0.3712
  702.5900       2054.4956        521.7059         87.1685      3938080.7500      15697.4287          0.3722
  702.7401       2060.2000        518.4642         86.0574      3973659.2500      15697.4287          0.3686
  702.8900       2060.2000        518.4642         84.0775      3973659.2500      15697.4287          0.3686
  703.0400       2059.9109        518.6285         84.3160      3971846.7500      15697.4287          0.3688
  703.1900       2057.7795        519.8428         89.1889      3958465.5000      15697.4287          0.3701
  703.3400       2056.6875        520.4860         93.2825      3951476.0000      15697.4287          0.3709
  703.4901       2055.5999        521.0784         93.4474      3944895.2500      15697.4287          0.3715
  703.6400       2055.6736        521.0383         90.2589      3945341.5000      15697.4287          0.3715
  703.7900       2056.8499        520.3951         86.2506      3952478.2500      15697.4287          0.3708
  703.9400       2058.1372        519.6373         82.7239      3960732.2500      15697.4287          0.3699
  704.0900       2065.8296        515.2930         80.9698      4009052.7500      15697.4287          0.3651
  704.2401       2053.2998        522.3855         81.8674      3930622.0000      15697.4287          0.3729
  704.3900       2053.2998        522.3855         82.7750      3930622.0000      15697.4287          0.3729
