~VERSION INFORMATION
 VERS.                          2.0   : CWLS LOG ASCII STANDARD - VERSION 2.0
 WRAP.                          NO    : ONE LINE PER DEPTH STEP
#
~Well Information Section
#MNEM     .UNIT     DATA                DESCRIPTION
#-----    -----     --------            --------------
 STRT     .M        28.6400             : START DEPTH
 STOP     .M        1700.0000           : END DEPTH
 STEP     .M        0.1500              : INCREMENT DEPTH
 NULL     .         -999.2500           : NULL VALUE
 COMP     .                              :
 WELL     .         F06-1               : WELL NAME
 EKB      .M        28.6400             : KELLY BUSHING ELEVATION
 EGL      .M        0.0000              : GROUND LEVEL ELEVATION
 EPD      .M        0.0000              : PERMANENT DATUM ELEVATION
 FLD      .                              :
 LOC      . X = 607903.0000 Y = 6077213.0000: WELL LOCATION
 PROV     .                              :
 SRVC     .                              :
 PROV     .                              :
 DATE     .                              :
 API      .                              :
#
~Curve Information Section
#MNEM     .UNIT               Curve #DESCRIPTION
#-----    -----               ----   --------------
 DEPTH    .M                  : 1     DEPTH
 RHOB     .kg/m3              : 2     Density
 DT       .us/m               : 3     Sonic
 GR       .API                : 4     Gamma Ray
 AI       .(m/s)*(kg/m3)      : 5     P-Impedance
 AI_rel   .(m/s)*(kg/m3)      : 6     P-Impedance_rel
 PHIE     .fraction           : 7     Porosity
~A (ASCII LOG DATA)
# ...
  803.5400       2161.5000        460.9514         49.0405      4689214.5000      119259.3906          0.3053
  803.6900       2161.5000        460.9514         48.1453      4689214.5000      119259.3906          0.3053
  803.8400       2161.5000        460.9514         45.0015      4689214.5000      119259.3906          0.3053
  803.9901       2161.5000        460.9514         41.7747      4689214.5000      119259.3906          0.3053
  804.1400       2163.8816        459.5981         41.3631      4708256.0000      119259.3906          0.3038
  804.2900       2173.6243        454.0754         42.7160      4787497.0000      119259.3906          0.2977
  804.4400       2183.3335        448.5717         43.2139      4867357.0000      119259.3906          0.2917
  804.5900       2186.7798        446.6131         41.4645      4896378.0000      119259.3906          0.2895
  804.7401       2188.0000        445.9196         39.8101      4906714.0000      119259.3906          0.2888
  804.8900       2189.0063        445.3477         40.9548      4915288.5000      123217.8359          0.2881
  805.0400       2190.3000        444.6125         45.4301      4926312.0000      129611.6484          0.2873
  805.1900       2190.3000        444.6125         47.4549      4926312.0000      131402.7500          0.2873
  805.3400       2190.3000        444.6125         43.0722      4926312.0000      131402.7500          0.2873
  805.4901       2190.3000        444.6125         41.2058      4926312.0000      131402.7500          0.2873
  805.6400       2189.8713        444.8461         44.3387      4922765.0000      131402.7500          0.2876
  805.7900       2188.3140        445.7128         47.3178      4909709.0000      131402.7500          0.2886
  805.9400       2185.6929        447.2116         52.2249      4887407.5000      131402.7500          0.2902
  806.0900       2182.6877        448.9388         58.3857      4861895.0000      131402.7500          0.2921
  806.2401       2180.3950        450.2252         58.5593      4842910.5000      131402.7500          0.2935
  806.3900       2177.4231        451.8739         58.4667      4818696.0000      131402.7500          0.2953
  806.5400       2174.0999        453.7625         52.4946      4791273.5000      131402.7500          0.2974
  806.6900       2173.5354        454.0833         50.2559      4786655.5000      131402.7500          0.2977
  806.8400       2171.2722        455.3695         48.7344      4768164.5000      131402.7500          0.2991
  806.9901       2169.5000        456.3766         44.7643      4753749.0000      131402.7500          0.3003
  807.1400       2168.8289        456.7636         39.9326      4748270.5000      131402.7500          0.3007
  807.2900       2166.1001        458.3373         38.2372      4725995.5000      131402.7500          0.3024
  807.4400       2166.1001        458.3373         40.6969      4725995.5000      131402.7500          0.3024
  807.5900       2166.1001        458.3373         41.7682      4725995.5000      131402.7500          0.3024
  807.7401       2166.8630        457.8999         41.3203      4732214.5000      131402.7500          0.3019
  807.8900       2171.7998        455.0695         41.8359      4772457.0000      131402.7500          0.2988
  808.0400       2171.9219        455.0031         48.5208      4773423.5000      131402.7500          0.2987
  808.1900       2173.0940        454.3601         47.7226      4782758.0000      131402.7500          0.2980
  808.3400       2174.0999        453.7625         51.5709      4791273.5000      131402.7500          0.2974
  808.4901       2174.0999        453.7625         41.7384      4791273.5000      131402.7500          0.2974
  808.6400       2174.0999        453.7625         40.1528      4791273.5000      131402.7500          0.2974
  808.7900       2174.0266        453.8047         43.7440      4790668.0000      131402.7500          0.2974
  808.9400       2170.6880        455.7300         47.7594      4763101.5000      131402.7500          0.2996
  809.0900       2168.4001        457.0302         49.5694      4744545.5000      131402.7500          0.3010
  809.2401       2168.4001        457.0302         49.1193      4744545.5000      131402.7500          0.3010
  809.3900       2168.4001        457.0302         47.3430      4744545.5000      114415.5234          0.3010
  809.5400       2168.4001        457.0302         45.1176      4744545.5000      110742.3828          0.3010
  809.6900       2168.4001        457.0302         42.8792      4744545.5000      110599.0703          0.3010
  809.8400       2168.4001        457.0302         41.0618      4744545.5000      110599.0703          0.3010
  809.9901       2168.4001        457.0302         41.7539      4744545.5000      110599.0703          0.3010
  810.1400       2168.4001        457.0302         45.9019      4744545.5000      110599.0703          0.3010
  810.2900       2167.3472        457.6037         47.9802      4736299.0000      110599.0703          0.3016
  810.4400       2165.2185        458.8100         49.3803      4719211.5000      110599.0703          0.3030
  810.5900       2161.0112        461.2009         53.4151      4685645.0000      110599.0703          0.3056
  810.7401       2160.3000        461.6050         55.2505      4679975.0000      110599.0703          0.3060
  810.8900       2160.3000        461.6050         53.2625      4679975.0000      110599.0703          0.3060
  811.0400       2160.3000        461.6050         50.5773      4679975.0000      110599.0703          0.3060
  811.1900       2160.3000        461.6050         49.3133      4679975.0000      110599.0703          0.3060
  811.3400       2160.3000        461.6050         47.3739      4679975.0000      110599.0703          0.3060
  811.4901       2160.3000        461.6050         47.5218      4679975.0000      110599.0703          0.3060
  811.6400       2160.3000        461.6050         48.7507      4679975.0000      110599.0703          0.3060
  811.7900       2161.9507        460.6669         49.4410      4693099.0000      110599.0703          0.3050
  811.9400       2162.6001        460.2979         47.9735      4698262.0000      110599.0703          0.3046
  812.0900       2164.1768        459.4019         50.1015      4710868.5000      110599.0703          0.3036
  812.2401       2164.9001        458.9908         50.1705      4716652.0000      110599.0703          0.3032
  812.3900       2168.6914        456.8549         47.7853      4747078.0000      110599.0703          0.3008
  812.5400       2170.7002        455.7231         48.5800      4763200.0000      110599.0703          0.2996
  812.6900       2170.7002        455.7231         50.0312      4763200.0000      110599.0703          0.2996
  812.8400       2172.0925        454.9318         49.8626      4774558.0000      110599.0703          0.2987
  812.9901       2173.0000        454.4160         53.8600      4781962.0000      110599.0703          0.2981
  813.1400       2175.6379        452.9169         56.5869      4803667.5000      110599.0703          0.2965
  813.2900       2177.5999        451.8018         55.3787      4819812.0000      110599.0703          0.2953
  813.4400       2177.5999        451.8018         51.8646      4819812.0000      110599.0703          0.2953
  813.5900       2177.5999        451.8018         47.8969      4819812.0000      108013.3047          0.2953
  813.7401       2177.5999        451.8018         44.2981      4819812.0000      88603.2812          0.2953
  813.8900       2177.5999        451.8018         43.8631      4819812.0000      72184.6875          0.2953
  814.0400       2177.5999        451.8018         46.7789      4819812.0000      72184.6875          0.2953
  814.1900       2177.5999        451.8018         50.5142      4819812.0000      72184.6875          0.2953
  814.3400       2177.5999        451.8018         52.4770      4819812.0000      72184.6875          0.2953
