~VERSION INFORMATION
 VERS.                          2.0   : CWLS LOG ASCII STANDARD - VERSION 2.0
 WRAP.                          NO    : ONE LINE PER DEPTH STEP
#
~Well Information Section
#MNEM     .UNIT     DATA                DESCRIPTION
#-----    -----     --------            --------------
 STRT     .M        28.6400             : START DEPTH
 STOP     .M        1700.0000           : END DEPTH
 STEP     .M        0.1500              : INCREMENT DEPTH
 NULL     .         -999.2500           : NULL VALUE
 COMP     .                              :
 WELL     .         F06-1               : WELL NAME
 EKB      .M        28.6400             : KELLY BUSHING ELEVATION
 EGL      .M        0.0000              : GROUND LEVEL ELEVATION
 EPD      .M        0.0000              : PERMANENT DATUM ELEVATION
 FLD      .                              :
 LOC      . X = 607903.0000 Y = 6077213.0000: WELL LOCATION
 PROV     .                              :
 SRVC     .                              :
 PROV     .                              :
 DATE     .                              :
 API      .                              :
#
~Curve Information Section
#MNEM     .UNIT               Curve #DESCRIPTION
#-----    -----               ----   --------------
 DEPTH    .M                  : 1     DEPTH
 RHOB     .kg/m3              : 2     Density
 DT       .us/m               : 3     Sonic
 GR       .API                : 4     Gamma Ray
 AI       .(m/s)*(kg/m3)      : 5     P-Impedance
 AI_rel   .(m/s)*(kg/m3)      : 6     P-Impedance_rel
 PHIE     .fraction           : 7     Porosity
~A (ASCII LOG DATA)
# ...
 1254.8900       2155.7000        464.2192        120.1586      4643712.0000      51965.6836          0.3089
 1255.0400       2155.7000        464.2192        106.7292      4643712.0000      51965.6836          0.3089
 1255.1901       2155.7000        464.2192        105.6899      4643712.0000      51965.6836          0.3089
 1255.3401       2155.7000        464.2192        104.0287      4643712.0000      51965.6836          0.3089
 1255.4900       2155.7000        464.2192        103.2477      4643712.0000      51965.6836          0.3089
 1255.6400       2155.1985        464.5042        101.7598      4639802.5000      51965.6836          0.3092
 1255.7900       2150.9968        466.8945         89.3453      4607031.5000      51965.6836          0.3119
 1255.9401       2149.6406        467.6911         86.4449      4596298.0000      51965.6836          0.3127
 1256.0901       2145.4001        470.1010         81.2156      4563700.0000      51965.6836          0.3154
 1256.2400       2145.4001        470.1010         78.0622      4563700.0000      51965.6836          0.3154
 1256.3900       2145.3328        470.1393         74.5890      4563186.5000      51965.6836          0.3154
 1256.5400       2143.0227        471.4525         74.6016      4545579.0000      51965.6836          0.3168
 1256.6901       2137.5000        474.5889         75.4988      4503898.5000      51965.6836          0.3203
 1256.8401       2127.0256        480.5435         79.5829      4426293.5000      51965.6836          0.3269
 1256.9900       2134.8567        476.0652         80.4864      4484389.0000      51965.6836          0.3220
 1257.1400       2133.9385        476.6140         81.3807      4477289.5000      51965.6836          0.3226
 1257.2900       2127.3481        480.3603         83.5723      4428671.0000      51965.6836          0.3267
 1257.4401       2127.0000        480.5581         90.4798      4426103.5000      27696.4746          0.3269
 1257.5901       2125.8984        481.1579         88.0428      4418298.0000      13770.0762          0.3275
 1257.7400       2127.8733        480.0333         85.3206      4432765.5000      12678.4727          0.3263
 1257.8900       2132.1721        477.5903         84.2463      4464457.0000      12678.4727          0.3236
 1258.0400       2137.7449        474.4480         82.5592      4505785.0000      12678.4727          0.3202
 1258.1901       2136.5369        475.1383         81.5457      4496669.0000      12678.4727          0.3209
 1258.3401       2127.4839        480.2592         81.4125      4429993.0000      12678.4727          0.3265
 1258.4900       2121.9380        483.4383         81.4125      4389291.5000      12678.4727          0.3301
 1258.6400       2114.7363        487.5296         85.0769      4337738.0000      12678.4727          0.3345
 1258.7900       2125.9072        481.1792         88.8338      4418487.0000      12678.4727          0.3276
 1258.9401       2139.0500        473.6882         89.6007      4515985.5000      12678.4727          0.3193
 1259.0901       2149.7781        467.6060         87.5331      4597597.0000      12678.4727          0.3127
 1259.2400       2151.4097        466.6646         86.5338      4610186.5000      12678.4727          0.3116
 1259.3900       2150.3025        467.3071         95.9804      4601478.5000      12678.4727          0.3123
 1259.5400       2150.0000        467.4869         99.9313      4599060.0000      12678.4727          0.3125
 1259.6901       2150.0000        467.4869        104.1630      4599060.0000      12678.4727          0.3125
 1259.8401       2150.0000        467.4869        108.4437      4599060.0000      12678.4727          0.3125
 1259.9900       2148.4773        468.3522        109.3151      4587322.0000      12678.4727          0.3134
 1260.1400       2145.5061        470.0172        108.8679      4564764.5000      12678.4727          0.3153
 1260.2900       2141.7178        472.1810        108.7065      4535835.0000      12678.4727          0.3176
 1260.4401       2139.1570        473.6497        107.5902      4516333.5000      12678.4727          0.3193
 1260.5901       2137.1245        474.8044        107.9751      4501075.0000      12678.4727          0.3205
 1260.7400       2134.1650        476.4697        109.5000      4479145.5000      12678.4727          0.3224
 1260.8900       2132.0779        477.6600        111.6147      4463592.5000      12678.4727          0.3237
 1261.0400       2134.1265        476.5081        114.2997      4478724.5000      12678.4727          0.3224
 1261.1901       2139.2424        473.5855        116.2584      4517194.0000      12678.4727          0.3192
 1261.3401       2144.2805        470.7090        119.4842      4555475.5000      12678.4727          0.3161
 1261.4900       2145.9482        469.7753        123.2677      4568034.0000      12678.4727          0.3151
 1261.6400       2144.8181        470.4181        123.7456      4559390.0000      -18409.6699          0.3157
 1261.7900       2143.1204        471.3686        122.1677      4546603.5000      -53598.8945          0.3168
 1261.9401       2141.9001        472.0620        120.6176      4537328.0000      -56052.2188          0.3175
 1262.0901       2139.4048        473.4925        119.0267      4518424.0000      -56052.2188          0.3191
 1262.2400       2132.3191        477.5352        116.3405      4465442.5000      -56052.2188          0.3235
 1262.3900       2122.7859        482.9415        113.1574      4395754.5000      -56052.2188          0.3295
 1262.5400       2117.0679        486.1852        111.2819      4354449.5000      -56052.2188          0.3331
 1262.6901       2121.6467        483.5897        108.2571      4387500.0000      -56052.2188          0.3302
 1262.8401       2129.7468        478.9686        104.1856      4446569.5000      -56052.2188          0.3252
 1262.9900       2132.7000        477.2904        100.0419      4468349.0000      -56052.2188          0.3233
 1263.1400       2132.7000        477.2904         97.0594      4468349.0000      -56052.2188          0.3233
 1263.2900       2132.7000        477.2904         91.3696      4468349.0000      -56052.2188          0.3233
 1263.4401       2133.7280        476.7145         83.3402      4475925.5000      -56052.2188          0.3227
 1263.5901       2135.8660        475.5116         81.1593      4491725.0000      -56052.2188          0.3213
 1263.7400       2134.1111        476.4958         79.7892      4478782.5000      -56052.2188          0.3224
 1263.8900       2129.9043        478.9075         76.9908      4447500.5000      -56052.2188          0.3251
 1264.0400       2123.3691        482.6150         74.4846      4399766.5000      -56052.2188          0.3291
 1264.1901       2118.1726        485.5524         73.4527      4362414.0000      -56052.2188          0.3324
 1264.3401       2114.8079        487.4812         70.4101      4338250.5000      -56052.2188          0.3345
 1264.4900       2111.5823        489.2918         68.8812      4315595.5000      -56052.2188          0.3365
 1264.6400       2110.0798        490.1456         71.9347      4305011.5000      -56052.2188          0.3375
 1264.7900       2112.8684        488.5652         72.5188      4324675.0000      -56052.2188          0.3357
 1264.9401       2118.1470        485.5835         74.1648      4362072.0000      -56052.2188          0.3324
 1265.0901       2120.1641        484.4054         77.4257      4376841.5000      -56052.2188          0.3312
 1265.2400       2118.1880        485.5694         78.2282      4362280.0000      -56052.2188          0.3324
 1265.3900       2116.1292        486.7290         78.2282      4347656.5000      -56052.2188          0.3337
 1265.5400       2114.0620        487.8842         78.2282      4333128.5000      -56052.2188          0.3350
 1265.6901       2110.8999        489.7080         78.1793      4310527.5000      -55869.9844          0.3370
 1265.8401       2110.9878        489.6580         77.2140      4311149.0000      -52623.3672          0.3369
