~VERSION INFORMATION
 VERS.                          2.0   : CWLS LOG ASCII STANDARD - VERSION 2.0
 WRAP.                          NO    : ONE LINE PER DEPTH STEP
#
~Well Information Section
#MNEM     .UNIT     DATA                DESCRIPTION
#-----    -----     --------            --------------
 STRT     .M        28.6400             : START DEPTH
 STOP     .M        1700.0000           : END DEPTH
 STEP     .M        0.1500              : INCREMENT DEPTH
 NULL     .         -999.2500           : NULL VALUE
 COMP     .                              :
 WELL     .         F06-1               : WELL NAME
 EKB      .M        28.6400             : KELLY BUSHING ELEVATION
 EGL      .M        0.0000              : GROUND LEVEL ELEVATION
 EPD      .M        0.0000              : PERMANENT DATUM ELEVATION
 FLD      .                              :
 LOC      . X = 607903.0000 Y = 6077213.0000: WELL LOCATION
 PROV     .                              :
 SRVC     .                              :
 PROV     .                              :
 DATE     .                              :
 API      .                              :
#
~Curve Information Section
#MNEM     .UNIT               Curve #DESCRIPTION
#-----    -----               ----   --------------
 DEPTH    .M                  : 1     DEPTH
 RHOB     .kg/m3              : 2     Density
 DT       .us/m               : 3     Sonic
 GR       .API                : 4     Gamma Ray
 AI       .(m/s)*(kg/m3)      : 5     P-Impedance
 AI_rel   .(m/s)*(kg/m3)      : 6     P-Impedance_rel
 PHIE     .fraction           : 7     Porosity
~A (ASCII LOG DATA)
# ...
 1035.2900       2205.2000        436.1165         48.4360      5056447.5000      -129839.6641          0.2780
 1035.4401       2205.4753        435.9665         48.7936      5058821.0000      -129839.6641          0.2778
 1035.5901       2206.8921        435.1832         50.1572      5071189.5000      -129839.6641          0.2770
 1035.7400       2209.1533        433.8983         42.7392      5091418.5000      -129839.6641          0.2755
 1035.8900       2211.6169        432.4930         45.0607      5113669.0000      -114498.8125          0.2740
 1036.0400       2214.5984        430.7802         48.6474      5140903.5000      -42006.1836          0.2721
 1036.1901       2215.7649        430.1367         55.5512      5151306.5000      -25394.0078          0.2714
 1036.3401       2215.7739        430.1072         55.5716      5151744.5000      -25394.0078          0.2714
 1036.4900       2208.7212        434.1154         52.4618      5087968.5000      -25394.0078          0.2758
 1036.6400       2199.7861        439.1960         46.7475      5008733.5000      -25394.0078          0.2814
 1036.7900       2192.1729        443.5448         46.1245      4942413.5000      -25394.0078          0.2862
 1036.9401       2187.6279        446.0939         48.2684      4903963.0000      -25394.0078          0.2890
 1037.0901       2188.2471        445.7793         49.3099      4908825.0000      -25394.0078          0.2886
 1037.2400       2192.9111        443.1282         52.8219      4948733.5000      -25394.0078          0.2857
 1037.3900       2201.0166        438.5061         54.5925      5019359.5000      -25394.0078          0.2806
 1037.5400       2206.4456        435.4369         55.4779      5067203.5000      -25394.0078          0.2773
 1037.6901       2214.4001        430.8881         54.5733      5139153.5000      -25394.0078          0.2722
 1037.8401       2223.5024        425.7148         54.1232      5222997.5000      -25394.0078          0.2666
 1037.9900       2233.7290        419.9308         55.4475      5319313.0000      -25394.0078          0.2602
 1038.1400       2238.4016        417.2761         54.6125      5364329.5000      -25394.0078          0.2572
 1038.2900       2242.9304        414.7023         53.7168      5408546.5000      -25394.0078          0.2545
 1038.4401       2245.3296        413.3389         49.6361      5432181.0000      -25394.0078          0.2529
 1038.5901       2244.4082        413.8367         47.0635      5423417.5000      -25394.0078          0.2534
 1038.7400       2245.3730        413.3113         54.1614      5432645.0000      -25394.0078          0.2529
 1038.8900       2245.5000        413.2421         61.8114      5433860.5000      -25394.0078          0.2528
 1039.0400       2244.4658        413.8053         67.0732      5423968.5000      -25394.0078          0.2534
 1039.1901       2243.3699        414.4482         70.0729      5412910.5000      -25394.0078          0.2542
 1039.3401       2243.2000        414.5492         68.2296      5411179.0000      -25394.0078          0.2543
 1039.4900       2243.2000        414.5492         60.7341      5411179.0000      -25394.0078          0.2543
 1039.6400       2244.0769        414.0281         58.0341      5420111.0000      -25394.0078          0.2537
 1039.7900       2245.2373        413.3852         58.8236      5431348.0000      -25394.0078          0.2530
 1039.9401       2244.5811        413.7425         59.1223      5425070.5000      -25394.0078          0.2533
 1040.0901       2242.2744        415.0542         58.9148      5402384.0000      -25394.0078          0.2548
 1040.2400       2239.3989        416.7045         58.3811      5374094.0000      -25394.0078          0.2566
 1040.3900       2237.7390        417.6324         59.5183      5358158.0000      -25394.0078          0.2577
 1040.5400       2238.2417        417.3586         60.3512      5362879.0000      -25394.0078          0.2573
 1040.6901       2238.6001        417.1634         59.8629      5366243.0000      44452.6719          0.2571
 1040.8401       2239.3367        416.7257         58.6633      5373650.0000      100059.0547          0.2566
 1040.9900       2238.9807        416.9372         58.5100      5370071.0000      111713.3672          0.2569
 1041.1400       2237.8357        417.5798         62.7249      5359065.5000      111713.3672          0.2576
 1041.2900       2237.4001        417.8170         66.4500      5354977.0000      111713.3672          0.2579
 1041.4401       2237.4001        417.8170         69.2383      5354977.0000      111713.3672          0.2579
 1041.5901       2237.4001        417.8170         66.7380      5354977.0000      111713.3672          0.2579
 1041.7400       2238.0881        417.4423         62.0399      5361435.5000      111713.3672          0.2574
 1041.8900       2239.2131        416.7991         60.9941      5372408.0000      111713.3672          0.2567
 1042.0400       2240.9465        415.8015         63.8620      5389479.0000      111713.3672          0.2556
 1042.1901       2241.4219        415.5463         65.9459      5393920.5000      111713.3672          0.2554
 1042.3401       2240.2881        416.1897         66.6421      5382857.0000      111713.3672          0.2561
 1042.4900       2240.2922        416.1873         68.4330      5382898.5000      111713.3672          0.2561
 1042.6400       2240.9001        415.8563         74.1478      5388640.5000      111713.3672          0.2557
 1042.7900       2240.9001        415.8563         80.3972      5388640.5000      111713.3672          0.2557
 1042.9401       2237.8235        417.6048         79.0277      5358866.5000      111713.3672          0.2576
 1043.0901       2230.5200        421.7430         72.5673      5289017.0000      111713.3672          0.2621
 1043.2400       2225.4448        424.6227         66.4170      5240997.5000      111713.3672          0.2653
 1043.3900       2224.8000        425.0059         59.7845      5234751.0000      111713.3672          0.2658
 1043.5400       2225.2197        424.7565         53.7053      5238816.5000      111713.3672          0.2655
 1043.6901       2226.7402        423.8748         51.3016      5253312.0000      111713.3672          0.2645
 1043.8401       2230.7891        421.5787         51.4793      5291672.0000      111713.3672          0.2620
 1043.9900       2236.6018        418.2893         57.3064      5347047.0000      111713.3672          0.2584
 1044.1400       2239.6790        416.5412         62.8622      5376882.5000      111713.3672          0.2564
 1044.2900       2242.2114        415.0959         65.5853      5401672.0000      111713.3672          0.2549
 1044.4401       2242.8430        414.7632         66.9856      5407527.0000      111713.3672          0.2545
 1044.5901       2243.2000        414.5492         67.0648      5411179.0000      111713.3672          0.2543
 1044.7400       2242.3137        415.0457         66.6312      5402600.0000      111713.3672          0.2548
 1044.8900       2239.5100        416.6276         67.9471      5375330.5000      111713.3672          0.2565
 1045.0400       2238.3245        417.3295         69.9651      5363461.5000      111713.3672          0.2574
 1045.1901       2235.8267        418.7395         69.8566      5339432.0000      111713.3672          0.2589
 1045.3401       2234.0000        419.7776         69.7482      5321866.0000      114269.2969          0.2600
 1045.4900       2234.0000        419.7776         69.7250      5321866.0000      129092.4609          0.2600
 1045.6400       2234.0000        419.7776         69.3255      5321866.0000      147664.5625          0.2600
 1045.7900       2234.0000        419.7776         65.8774      5321866.0000      147664.5625          0.2600
 1045.9401       2233.8486        419.8600         68.3350      5320462.5000      147664.5625          0.2601
 1046.0901       2233.0637        420.2799         69.2300      5313285.0000      147664.5625          0.2605
