~VERSION INFORMATION
 VERS.                          2.0   : CWLS LOG ASCII STANDARD - VERSION 2.0
 WRAP.                          NO    : ONE LINE PER DEPTH STEP
#
~Well Information Section
#MNEM     .UNIT     DATA                DESCRIPTION
#-----    -----     --------            --------------
 STRT     .M        28.6400             : START DEPTH
 STOP     .M        1700.0000           : END DEPTH
 STEP     .M        0.1500              : INCREMENT DEPTH
 NULL     .         -999.2500           : NULL VALUE
 COMP     .                              :
 WELL     .         F06-1               : WELL NAME
 EKB      .M        28.6400             : KELLY BUSHING ELEVATION
 EGL      .M        0.0000              : GROUND LEVEL ELEVATION
 EPD      .M        0.0000              : PERMANENT DATUM ELEVATION
 FLD      .                              :
 LOC      . X = 607903.0000 Y = 6077213.0000: WELL LOCATION
 PROV     .                              :
 SRVC     .                              :
 PROV     .                              :
 DATE     .                              :
 API      .                              :
#
~Curve Information Section
#MNEM     .UNIT               Curve #DESCRIPTION
#-----    -----               ----   --------------
 DEPTH    .M                  : 1     DEPTH
 RHOB     .kg/m3              : 2     Density
 DT       .us/m               : 3     Sonic
 GR       .API                : 4     Gamma Ray
 AI       .(m/s)*(kg/m3)      : 5     P-Impedance
 AI_rel   .(m/s)*(kg/m3)      : 6     P-Impedance_rel
 PHIE     .fraction           : 7     Porosity
~A (ASCII LOG DATA)
# ...
 1584.7401       2167.2002        457.6837         31.8283      4735148.0000      41697.0547          0.3017
 1584.8900       2165.9360        458.4022         31.8283      4724981.0000      41697.0547          0.3025
 1585.0400       2158.1746        462.8280         31.8283      4663401.0000      41697.0547          0.3074
 1585.1901       2136.2061        475.3115         32.0637      4496485.5000      41697.0547          0.3211
 1585.3401       2115.4268        487.1070         32.9683      4343113.0000      41697.0547          0.3341
 1585.4901       2110.8171        489.7266         36.0786      4310206.0000      41697.0547          0.3370
 1585.6400       2112.5637        488.7472         39.5068      4322408.5000      41697.0547          0.3359
 1585.7900       2115.7834        486.9196         41.2961      4345309.5000      41697.0547          0.3339
 1585.9401       2120.4324        484.2746         42.8884      4378599.0000      41697.0547          0.3310
 1586.0901       2134.0330        476.5612         45.5730      4479640.0000       1929.3739          0.3225
 1586.2401       2150.4465        467.2215         50.2364      4602631.0000      -107784.7969          0.3122
 1586.3900       2152.4651        466.0685         53.3860      4618371.5000      -188435.2812          0.3109
 1586.5400       2154.5999        464.8727         52.9839      4634817.0000      -188435.2812          0.3096
 1586.6901       2153.7764        465.3406         52.1696      4628398.0000      -188435.2812          0.3101
 1586.8401       2155.0339        464.6164         50.8882      4638447.5000      -188435.2812          0.3094
 1586.9901       2156.1890        463.9506         47.7402      4647789.0000      -188435.2812          0.3086
 1587.1400       2146.9883        469.1984         48.6596      4575875.0000      -188435.2812          0.3144
 1587.2900       2141.3464        472.4048         49.8819      4533221.5000      -188435.2812          0.3179
 1587.4401       2128.4092        479.7572         53.8935      4436659.0000      -188435.2812          0.3260
 1587.5901       2113.4714        488.2465         57.6990      4329705.0000      -188435.2812          0.3353
 1587.7401       2093.6697        499.5000         61.8771      4191560.7500      -188435.2812          0.3477
 1587.8900       2089.6719        501.7720         65.3191      4164591.7500      -188435.2812          0.3502
 1588.0400       2087.8999        502.7789         63.4104      4152720.2500      -188435.2812          0.3513
 1588.1901       2087.8999        502.7789         64.3961      4152720.2500      -188435.2812          0.3513
 1588.3401       2088.3191        502.5406         66.0714      4155529.0000      -188435.2812          0.3510
 1588.4901       2092.1089        500.3870         68.3732      4181123.0000      -188435.2812          0.3487
 1588.6400       2106.0002        492.4881         65.8333      4277111.5000      -188435.2812          0.3400
 1588.7900       2131.1738        478.1614         60.0321      4457052.0000      -188435.2812          0.3242
 1588.9401       2137.5566        474.5586         59.7101      4504430.0000      -188435.2812          0.3203
 1589.0901       2148.1677        468.5280         56.8400      4584947.0000      -188435.2812          0.3136
 1589.2401       2151.9980        466.3488         52.4006      4614575.5000      -188435.2812          0.3113
 1589.3900       2148.2461        468.4571         48.5336      4585829.0000      -188435.2812          0.3136
 1589.5400       2140.5530        472.8559         46.9866      4526870.5000      -188435.2812          0.3185
 1589.6901       2136.0015        475.4420         49.7737      4492673.5000      -188435.2812          0.3212
 1589.8401       2130.8384        478.3647         55.0482      4454424.0000      -188435.2812          0.3244
 1589.9901       2128.0623        479.9260         55.9363      4434149.0000      -188435.2812          0.3262
 1590.1400       2121.5000        483.6689         55.6394      4386264.5000      -188435.2812          0.3303
 1590.2900       2120.1150        484.4707         57.7352      4376146.5000      -241529.4219          0.3312
 1590.4401       2111.1394        489.5718         57.3145      4312233.0000      -434269.8125          0.3368
 1590.5901       2112.7195        488.6315         56.8671      4323749.0000      -439407.2500          0.3358
 1590.7401       2114.6846        487.5354         57.2764      4337501.0000      -439407.2500          0.3346
 1590.8900       2116.6519        486.4407         60.2510      4351306.5000      -439407.2500          0.3334
 1591.0400       2118.7104        485.2436         65.0390      4366286.0000      -439407.2500          0.3320
 1591.1901       2123.0098        482.7973         67.5230      4397327.5000      -439407.2500          0.3293
 1591.3401       2126.5728        480.7974         68.5642      4423023.5000      -439407.2500          0.3272
 1591.4901       2127.9478        479.9949         68.2832      4433272.5000      -439407.2500          0.3263
 1591.6400       2125.2231        481.5634         65.9111      4413187.5000      -439407.2500          0.3280
 1591.7900       2115.1650        487.2839         63.6051      4340880.5000      -439407.2500          0.3343
 1591.9401       2110.0266        490.1809         60.2553      4304606.0000      -439407.2500          0.3375
 1592.0901       2108.7417        490.9287         59.5772      4295414.0000      -439407.2500          0.3383
 1592.2401       2112.1968        488.9708         61.0000      4319708.5000      -439407.2500          0.3361
 1592.3900       2126.3801        480.8886         65.2313      4422227.5000      -439407.2500          0.3272
 1592.5400       2140.7417        472.7203         66.7417      4528881.0000      -439407.2500          0.3183
 1592.6901       2155.2090        464.5192         63.1831      4640071.0000      -439407.2500          0.3093
 1592.8401       2159.2000        462.2585         59.5665      4670979.5000      -439407.2500          0.3068
 1592.9901       2154.3547        465.0120         57.3897      4632996.5000      -439407.2500          0.3098
 1593.1400       2142.0149        472.0055         59.9669      4538558.0000      -439407.2500          0.3175
 1593.2900       2135.0232        475.9891         64.7477      4485469.0000      -439407.2500          0.3219
 1593.4401       2134.6187        476.2098         66.4008      4482520.0000      -439407.2500          0.3221
 1593.5901       2135.0000        475.9832         64.0792      4485452.0000      -439407.2500          0.3219
 1593.7401       2138.6055        473.9519         60.4992      4512354.0000      -439407.2500          0.3197
 1593.8900       2146.9192        469.2322         58.5711      4575613.5000      -439407.2500          0.3144
 1594.0400       2153.9634        465.2271         58.2125      4629979.5000      -439407.2500          0.3100
 1594.1901       2160.5171        461.5074         57.6906      4681576.0000      -439407.2500          0.3059
 1594.3401       2145.1011        470.2536         57.0488      4564145.0000      -439407.2500          0.3156
 1594.4901       2120.3833        484.2888         58.0804      4379049.5000      -521767.3125          0.3310
 1594.6400       2121.1008        483.8972         60.3188      4383999.0000      -613825.5000          0.3306
 1594.7900       2114.6306        487.5733         62.0919      4338765.0000      -634038.2500          0.3346
 1594.9401       2094.8201        498.8177         62.0875      4199826.0000      -634038.2500          0.3470
 1595.0901       2087.3760        503.0618         61.4382      4149365.7500      -634038.2500          0.3517
 1595.2401       2089.9905        501.5817         63.3356      4166971.7500      -634038.2500          0.3500
 1595.3900       2102.1379        494.6765         65.0857      4250008.5000      -634038.2500          0.3424
 1595.5400       2134.6150        476.2306         65.1674      4489020.0000      -634038.2500          0.3221
