~VERSION INFORMATION
 VERS.                          2.0   : CWLS LOG ASCII STANDARD - VERSION 2.0
 WRAP.                          NO    : ONE LINE PER DEPTH STEP
#
~Well Information Section
#MNEM     .UNIT     DATA                DESCRIPTION
#-----    -----     --------            --------------
 STRT     .M        28.6400             : START DEPTH
 STOP     .M        1700.0000           : END DEPTH
 STEP     .M        0.1500              : INCREMENT DEPTH
 NULL     .         -999.2500           : NULL VALUE
 COMP     .                              :
 WELL     .         F06-1               : WELL NAME
 EKB      .M        28.6400             : KELLY BUSHING ELEVATION
 EGL      .M        0.0000              : GROUND LEVEL ELEVATION
 EPD      .M        0.0000              : PERMANENT DATUM ELEVATION
 FLD      .                              :
 LOC      . X = 607903.0000 Y = 6077213.0000: WELL LOCATION
 PROV     .                              :
 SRVC     .                              :
 PROV     .                              :
 DATE     .                              :
 API      .                              :
#
~Curve Information Section
#MNEM     .UNIT               Curve #DESCRIPTION
#-----    -----               ----   --------------
 DEPTH    .M                  : 1     DEPTH
 RHOB     .kg/m3              : 2     Density
 DT       .us/m               : 3     Sonic
 GR       .API                : 4     Gamma Ray
 AI       .(m/s)*(kg/m3)      : 5     P-Impedance
 AI_rel   .(m/s)*(kg/m3)      : 6     P-Impedance_rel
 PHIE     .fraction           : 7     Porosity
~A (ASCII LOG DATA)
# ...
 1693.7900       2264.0210        402.7133         63.5662      5621919.0000      -38071.4570          0.2412
 1693.9401       2265.0000        402.1316         66.1880      5632485.0000      -38071.4570          0.2406
 1694.0901       2264.7344        402.2847         63.7710      5629693.0000      -38071.4570          0.2408
 1694.2401       2261.0991        404.3751         59.5209      5591642.5000      -38071.4570          0.2431
 1694.3900       2253.1353        408.8759         58.9371      5510599.0000      -38071.4570          0.2480
 1694.5400       2245.5322        413.2230         64.6611      5434190.5000      -38071.4570          0.2528
 1694.6901       2246.5681        412.6067         67.2666      5444819.0000      -38071.4570          0.2521
 1694.8401       2244.2998        413.8957         64.1263      5422380.5000      -38071.4570          0.2535
 1694.9901       2243.2026        414.5476         65.4877      5411206.5000      -38071.4570          0.2543
 1695.1400       2243.2000        414.5492         61.9169      5411179.0000      -38071.4570          0.2543
 1695.2900       2242.0410        415.1804         72.8356      5400161.5000      -38071.4570          0.2550
 1695.4401       2242.0000        415.2028         76.2480      5399771.5000      -38071.4570          0.2550
 1695.5901       2244.1482        413.9818         72.5843      5420890.5000      -38071.4570          0.2536
 1695.7401       2255.9563        407.2972         65.2166      5539015.0000      -38071.4570          0.2462
 1695.8900       2261.1506        404.3477         61.7080      5592122.5000      -38071.4570          0.2431
 1696.0400       2268.6821        400.0422         60.9941      5671204.0000      -38071.4570          0.2383
 1696.1901       2276.6455        395.5382         62.1289      5755930.0000      -38071.4570          0.2334
 1696.3401       2280.6021        393.2691         66.9659      5799111.5000      -38071.4570          0.2308
 1696.4901       2277.2449        395.1728         69.6716      5762700.5000      -38071.4570          0.2329
 1696.6400       2271.8167        398.2811         69.6662      5704128.0000      -38071.4570          0.2364
 1696.7900       2265.2419        402.0226         67.3865      5634725.0000      -38071.4570          0.2405
 1696.9401       2262.0847        403.8167         61.4205      5601774.0000      -38071.4570          0.2425
 1697.0901       2263.3799        403.0807         57.5539      5615215.0000      -38071.4570          0.2416
 1697.2401       2265.6443        401.7939         57.8827      5638836.0000      -38071.4570          0.2402
 1697.3900       2272.1348        398.0842         63.6121      5707862.0000      -38071.4570          0.2361
 1697.5400       2281.8208        392.5753         68.1322      5812785.5000      -38071.4570          0.2301
 1697.6901       2292.0081        386.8242         68.8073      5925547.5000      -38071.4570          0.2238
 1697.8401       2298.1926        383.3247         64.8865      5995496.5000      -38071.4570          0.2199
 1697.9901       2295.6687        384.7397         62.5998      5966932.0000      -38071.4570          0.2214
 1698.1400       2274.0046        397.0425         60.4996      5730470.5000      -38071.4570          0.2350
 1698.2900       2251.2532        409.9541         60.6360      5492706.0000      -38071.4570          0.2492
 1698.4401       2247.9526        411.8377         60.4712      5458451.5000      -38594.9961          0.2512
 1698.5901       2252.1858        409.4251         58.3576      5500889.0000      -56862.4297          0.2486
 1698.7401       2255.8921        407.3225         56.4865      5538398.0000      -68176.5469          0.2463
 1698.8900       2258.5466        405.8259         56.5181      5565320.0000      -68176.5469          0.2447
 1699.0400       2257.3208        406.5082         58.4295      5552995.0000      -68176.5469          0.2454
 1699.1901       2253.2698        408.7981         62.3295      5512012.0000      -68176.5469          0.2479
 1699.3401       2253.6553        408.5790         65.3096      5515911.5000      -68176.5469          0.2477
 1699.4901       2258.8062        405.6664         66.8890      5568257.0000      -68176.5469          0.2445
 1699.6400       2262.7539        403.4365         68.4500      5608718.0000      -68176.5469          0.2420
 1699.7900       2264.4343        402.4676         68.9515      5626381.0000      2700981.2500          0.2410
 1699.9401       2265.0000        402.1316         68.7624      5632485.0000      5632485.0000          0.2406
