~VERSION INFORMATION
 VERS.                          2.0   : CWLS LOG ASCII STANDARD - VERSION 2.0
 WRAP.                          NO    : ONE LINE PER DEPTH STEP
#
~Well Information Section
#MNEM     .UNIT     DATA                DESCRIPTION
#-----    -----     --------            --------------
 STRT     .M        28.6400             : START DEPTH
 STOP     .M        1700.0000           : END DEPTH
 STEP     .M        0.1500              : INCREMENT DEPTH
 NULL     .         -999.2500           : NULL VALUE
 COMP     .                              :
 WELL     .         F06-1               : WELL NAME
 EKB      .M        28.6400             : KELLY BUSHING ELEVATION
 EGL      .M        0.0000              : GROUND LEVEL ELEVATION
 EPD      .M        0.0000              : PERMANENT DATUM ELEVATION
 FLD      .                              :
 LOC      . X = 607903.0000 Y = 6077213.0000: WELL LOCATION
 PROV     .                              :
 SRVC     .                              :
 PROV     .                              :
 DATE     .                              :
 API      .                              :
#
~Curve Information Section
#MNEM     .UNIT               Curve #DESCRIPTION
#-----    -----               ----   --------------
 DEPTH    .M                  : 1     DEPTH
 RHOB     .kg/m3              : 2     Density
 DT       .us/m               : 3     Sonic
 GR       .API                : 4     Gamma Ray
 AI       .(m/s)*(kg/m3)      : 5     P-Impedance
 AI_rel   .(m/s)*(kg/m3)      : 6     P-Impedance_rel
 PHIE     .fraction           : 7     Porosity
~A (ASCII LOG DATA)
# ...
 1145.0901       2243.8306        414.1908         71.8264      5417398.5000      146879.7500          0.2539
 1145.2400       2240.4307        416.1255         73.3205      5384069.0000      146879.7500          0.2560
 1145.3900       2234.7939        419.3077         75.0408      5329838.5000      146879.7500          0.2595
 1145.5400       2230.4954        421.7600         77.6571      5288575.5000      146879.7500          0.2622
 1145.6901       2228.6062        422.8241         77.1785      5270768.5000      146879.7500          0.2634
 1145.8401       2228.9751        422.6230         71.7063      5274149.0000      146879.7500          0.2631
 1145.9900       2231.5403        421.1576         66.5529      5298623.5000      146879.7500          0.2615
 1146.1400       2234.9473        419.2282         69.7650      5331136.0000      146879.7500          0.2594
 1146.2900       2237.4348        417.8284         76.2911      5354924.5000      146879.7500          0.2579
 1146.4401       2239.0728        416.8802         77.0952      5371030.0000      146879.7500          0.2568
 1146.5901       2240.3787        416.1403         70.2943      5383715.0000      146879.7500          0.2560
 1146.7400       2243.0437        414.6303         66.4460      5409795.0000      146879.7500          0.2543
 1146.8900       2243.9473        414.1180         69.0377      5418627.0000      146879.7500          0.2538
 1147.0400       2242.5791        414.8874         70.4789      5405275.5000      146879.7500          0.2547
 1147.1901       2242.0000        415.2028         69.0808      5399771.5000      146879.7500          0.2550
 1147.3401       2241.4658        415.5202         66.8478      5394364.5000      146879.7500          0.2553
 1147.4900       2240.9001        415.8563         65.9185      5388640.5000      146879.7500          0.2557
 1147.6400       2241.9424        415.2639         73.4105      5398855.5000      146879.7500          0.2551
 1147.7900       2244.2068        413.9770         81.2700      5421108.0000      146879.7500          0.2536
 1147.9401       2245.5000        413.2421         77.8185      5433860.5000      146879.7500          0.2528
 1148.0901       2245.5000        413.2421         73.3953      5433860.5000      146879.7500          0.2528
 1148.2400       2244.8381        413.6123         73.3769      5427405.5000      146879.7500          0.2532
 1148.3900       2242.2688        415.0584         74.7041      5402348.5000      146879.7500          0.2548
 1148.5400       2236.4138        418.3774         72.9967      5345700.0000      146879.7500          0.2585
 1148.6901       2230.1240        421.9615         70.0170      5285140.0000      146879.7500          0.2624
 1148.8401       2229.7581        422.1790         69.8489      5281550.0000      146879.7500          0.2627
 1148.9900       2232.6353        420.5248         75.8989      5309296.5000      146879.7500          0.2609
 1149.1400       2238.0757        417.4330         81.1993      5361535.0000      146879.7500          0.2575
 1149.2900       2239.7002        416.5099         77.6537      5377304.0000      147681.6719          0.2564
 1149.4401       2239.0977        416.8523         70.7402      5371454.5000      151328.8750          0.2568
 1149.5901       2236.8350        418.1381         65.6028      5349525.0000      155719.9375          0.2582
 1149.7400       2235.1001        419.1240         67.1995      5332789.5000      155719.9375          0.2593
 1149.8900       2236.8269        418.1487         71.2107      5349500.5000      155719.9375          0.2582
 1150.0400       2243.6746        414.2780         70.4366      5415878.5000      155719.9375          0.2540
 1150.1901       2246.6162        412.5965         70.0883      5445132.5000      155719.9375          0.2521
 1150.3401       2251.5818        409.7574         69.5096      5494924.5000      155719.9375          0.2490
 1150.4900       2252.9934        408.9595         69.3335      5509108.0000      155719.9375          0.2481
 1150.6400       2248.5652        411.5000         70.7377      5464522.0000      155719.9375          0.2509
 1150.7900       2237.6511        417.6994         71.9947      5357172.0000      155719.9375          0.2577
 1150.9401       2230.1543        421.9376         69.1687      5285521.0000      155719.9375          0.2624
 1151.0901       2227.0999        423.6988         65.0202      5256327.5000      155719.9375          0.2643
 1151.2400       2227.8127        423.2917         59.9376      5263156.0000      155719.9375          0.2639
 1151.3900       2237.8352        417.5713         59.2537      5359213.0000      155719.9375          0.2576
 1151.5400       2245.6721        413.1443         69.5340      5435574.5000      155719.9375          0.2527
 1151.6901       2250.0999        410.6279         68.2103      5479656.0000      155719.9375          0.2499
 1151.8401       2250.0737        410.6428         67.7939      5479395.0000      155719.9375          0.2499
 1151.9900       2245.5000        413.2421         72.7694      5433860.5000      155719.9375          0.2528
 1152.1400       2230.6587        421.6483         69.1686      5290360.5000      155719.9375          0.2621
 1152.2900       2227.1912        423.6462         67.3595      5257200.0000      155719.9375          0.2642
 1152.4401       2233.7080        419.9435         66.4393      5319093.0000      155719.9375          0.2602
 1152.5901       2244.8262        413.6250         66.4008      5427299.5000      155719.9375          0.2532
 1152.7400       2258.2773        405.9804         71.0339      5562712.0000      155719.9375          0.2448
 1152.8900       2240.4697        416.1009         75.1290      5384919.0000      155719.9375          0.2559
 1153.0400       2225.1987        424.7538         72.2475      5239067.0000      155719.9375          0.2655
 1153.1901       2201.3877        438.2829         67.0670      5023557.5000      155719.9375          0.2804
 1153.3401       2190.3726        444.5429         59.3451      4927358.5000      155719.9375          0.2873
 1153.4900       2213.4675        431.4419         59.3672      5131650.5000      155719.9375          0.2729
 1153.6400       2235.0630        419.1735         60.3315      5332849.0000      155719.9375          0.2593
 1153.7900       2258.2097        405.9960         58.6363      5563389.5000      155719.9375          0.2448
 1153.9401       2266.3679        401.3541         59.3007      5646854.5000      155719.9375          0.2398
 1154.0901       2264.6416        402.3575         59.5772      5628460.0000      155719.9375          0.2408
 1154.2400       2259.4604        405.2864         63.7558      5575057.5000      124890.8906          0.2441
 1154.3900       2258.1001        406.0528         65.7179      5561099.5000      106122.9766          0.2449
 1154.5400       2257.2937        406.5320         65.9459      5552565.5000      103005.3828          0.2454
 1154.6901       2256.1389        407.1756         65.9459      5540952.0000      103005.3828          0.2462
 1154.8401       2255.0276        407.8189         64.3487      5529486.5000      103005.3828          0.2469
 1154.9900       2249.9690        410.7023         64.9190      5478487.5000      103005.3828          0.2500
 1155.1400       2237.0186        418.0642         66.1098      5351656.5000      103005.3828          0.2582
 1155.2900       2217.3911        429.1992         66.7029      5167670.5000      103005.3828          0.2704
 1155.4401       2212.7346        431.8347         65.6949      5124090.0000      103005.3828          0.2733
 1155.5901       2224.4084        425.2001         62.4909      5232197.0000      103005.3828          0.2660
 1155.7400       2236.8010        418.1746         60.3907      5349300.0000      103005.3828          0.2583
 1155.8900       2251.0325        410.0811         58.6922      5490235.5000      103005.3828          0.2493
